ID,Name in English,Countries,Country codes alpha 3,ISO639-3 codes,Degree of endangerment,Alternate names,Name in the language,Number of speakers 2024,Sources,Latitude,Longitude,Description of the location
1022,South Italian,Italy,ITA,nap,Vulnerable,Neapolitan; Neapolitan-Calabrese; неаполитанский; неаполитанско-калабрийский,,7500000,,40.9798,15.249,"Campania, Lucania (Basilicata), Abruzzi (Abruzzo), Molise, northern Calabria, northern and central Apulia (Puglia), southern Lazio and Marche as well as easternmost Umbria"
1023,Sicilian,Italy,ITA,scn,Vulnerable,,,5000000,,37.4399,14.5019,"Sicily (Sicilia), southern and central Calabria and southern Apulia (Puglia); a large number of émigré communities"
383,Low Saxon,"Germany, Denmark, Netherlands, Poland, Russian Federation","DEU, DNK, NLD, POL, RUS","act, drt, frs, gos, nds, sdz, stl, twd, vel, wep",Vulnerable,"Low German, Niedersächsisch, Nedersaksisch, Niederdeutsch, Plattdeutsch ",Neddersassisch,4800000,,53.4029,10.3601,"northern Germany, the north-eastern part of the Netherlands, border regions of Denmark and Poland; émigré communities in the Russian Federation and elsewhere"
335,Belarusian,"Belarus, Latvia, Lithuania, Poland, Russian Federation, Ukraine","BRB, LVA, LTU, POL, RUS, UKR",bel,Vulnerable,,,4000000,"Hienadź Cychun: Weißrussisch. — Lexikon der Sprachen des europäischen Ostens. Herausgegeben von Miloš Okuka unter Mitwirkung von Gerald Krenn. Wieser Enzyklopädie des europäischen Ostens 10; Klagenfurt: Wieser, 2002. 563–579.",53.956,27.5756,Belarus except the Polesian-speaking south-west as well as adjacent regions of neighbouring countries
382,Lombard,"Italy, Switzerland","ITA, CHE",lmo,Definitely endangered,,,3500000,,45.7215,9.3273,"the region of Lombardy (except the southernmost border areas) and the Novara province in Piedmont, Italy; Ticino Canton and the Mesolcina District and two districts south of St. Moritz in Graubünden (Grigioni), Switzerland"
405,Romani,"Albania, Germany, Austria, Belarus, Bosnia and Herzegovina, Bulgaria, Croatia, Estonia, Finland, France, Greece, Hungary, Italy, Latvia, Lithuania, The former Yugoslav Republic of Macedonia, Netherlands, Poland, Romania, United Kingdom of Great Britain and Northern Ireland, Russian Federation, Slovakia, Slovenia, Switzerland, Czech Republic, Turkey, Ukraine, Serbia, Montenegro","ALB, DEU, AUT, BRB, BIH, BGR, HRV, EST, FIN, FRA, GRC, HUN, ITA, LVA, LTU, MKD, NLD, POL, ROU, GBR, RUS, SVK, SVN, CHE, CZE, TUR, UKR, SRB, MNE","rmc, rmf, rml, rmn, rmo, rmw, rmy",Definitely endangered,"sinti, vlax,  calò",,3500000,"Yaron Matras: Romani: a linguistic introduction. Cambridge: Cambridge University Press,  2002.",46.3165,22.3681,"many European countries, most densely in East-Central and Eastern Europe and in the Balkans"
2211,Yiddish (Israel),Israel,ISR,ydd,Definitely endangered,Judeo-German,,3000000,"Neil G. Jacobs: Yiddish: a linguistic introduction. Cambridge: Cambridge University Press, 2005.",32.0833,34.8333,"most speakers now live outside Europe, mainly in North America and Israel; cf. Yiddish (Europe)"
1586,Gondi,India,IND,gon,Vulnerable,"Gondi; Gaudi; Gondiva; Gondwadi; Goondile; Goudwal; Ghond; Godi; Gondu; Goudi
",,2713790,,19.5804,80.4418,"Madhya Pradesh (Betul, Chhindwara, Seoni, Mandla, Balaghat), Maharashtra (Amravati, Wardha, Nagpur, Bhandara, Yavatmal); also in Andhra Pradesh and Orissa"
1020,Limburgian-Ripuarian,"Germany, Belgium, Netherlands","DEU, BEL, NLD","ksh, lim",Vulnerable,Colognian (dialect; in German: Kölsch),,2600000,,50.7781,6.0864,Limburg provinces in Belgium and the Netherlands and Rhineland in Germany
1943,Quechua of Southern Bolivia,Bolivia (Plurinational State of),BOL,quh,Vulnerable,,,2300000,,-18.0675,-65.7641,"Departments of Cochabamba, Chuquisaca, Potosí and Oruro in Bolivia."
1565,Kumaoni,"India, Nepal","IND, NPL",kfy,Vulnerable,Kumauni; Kamaoni; Kumau; Kumawani; Kumgoni,,2003783,,29.4778,79.8486,"Uttarakhand, also in Uttar Pradesh, Madhya Pradesh, Assam and Bihar; also in Nepal"
755,Aymara,"Bolivia (Plurinational State of), Chile, Peru","BOL, CHL, PER","ayc, ayr",Vulnerable,"Aimara, Jaqi Aru, Southern Aymara.",,2000000,www.inei.gob.pe para  aymara en el Perú (Censo de 2007).,-16.5835,-68.302,"Departamentos  de Puno,  Moquegua y Tacna, en el Perú. Area del lago Titicaca, donde se  incluye también el Altiplano boliviano.
In Bolivia: departments of La Paz, Oruro, Potosí and Cochabamba.
In Chile: Province of Tarapacá (interior of Arica, Iquique)."
349,Emilian-Romagnol,"Italy, San Marino","ITA, SMR",eml,Definitely endangered,,,2000000,,44.127,12.0739,"the region of Emilia-Romagna, parts of the provinces of Pavia, Voghera, and Mantua in southern Lombardy, the Lunigiana district in northwestern Tuscany, the Pesaro-Urbino province in the region of Marche and the Republic of San Marino"
399,Piedmontese,Italy,ITA,pms,Definitely endangered,,,2000000,,45.2013,7.8662,"Piedmont Region except the Novara Province, the western Alpine valleys and southern border areas, as well as minor adjacent areas"
1021,Venetan,"Croatia, Italy, Slovenia","HRV, ITA, SVN",vec,Vulnerable,,,2000000,http://www.elgalepin.com/,45.4601,12.1948,"Veneto region, parts of Friuli-Venezia Giulia, Italy; Istria in both Slovenia and Croatia"
1985,Zazaki,Turkey,TUR,zza,Vulnerable,Zaza; Dimli; Kirmanjki,,2000000,"Ludwig Paul: Zazaki: Grammatik und Versuch einer Dialektologie. Beiträge zur Iranistik 18; Wiesbaden: Reichert, 1998.
http://www.ethnologue.com/show_language.asp?code=zza
http://www.zazaki.de/englisch/index.htm

",38.8824,40.4846,"Tunceli, Erzincan, Elazığ and Bingöl provinces, Hınıs district of Erzurum Province, the eastern parts of Sivas Province, Varto district of Muş Province, Sarız district of Kayseri Province, the northern and western parts of Diyarbakır Province, Siverek district of Şanlıurfa Province as well as small areas in adjacent provinces. Many immigrants in Europe."
1591,Kurux (India),India,IND,kru,Vulnerable,Kurukh; Oraon,,1751489,,22.1467,85.2758,Jharkhand and Bihar
2065,Tamajeq,Niger,NER,thz,Vulnerable,,,1750000,"Tuareg organisations (eg Temoust, Lyon see websites)
Data presented numerous times at UN Commission / Council for Human Rights",17.2352,8.0859,
1585,Tulu,India,IND,tcy,Vulnerable,"Tuluva Bhasa; Tullu; Thulu; Tal; Tilu; Thalu
",,1722768,,12.0178,75.7067,"Karnataka, Andhra Pradesh, Kerala"
1556,Kangdi,India,IND,xnr,Definitely endangered,Dogaryali; Dogri Pahari;  Tokkaru; Dogri-Kangra; Bhatbali; Bhatbali; East Dogri; Kangri; Kangra,,1700000,,32.4356,76.1242,Himachal Pradesh
410,Scots,United Kingdom of Great Britain and Northern Ireland,GBR,sco,Vulnerable,Lallans; Northumbrian (local name in England),,1500000,,56.2189,-3.7683,Lowland Scotland and adjacent parts of England; émigré communities in Ireland
1026,Torlak,"Albania, Bulgaria, The former Yugoslav Republic of Macedonia, Romania, Serbia","ALB, BGR, MKD, ROU, SRB","bos, hrv, srp",Vulnerable,"Shop; dialects: Goran, Janjev, Krashovan",,1500000,,42.9644,22.1374,"the core area: south-eastern Serbia, the westernmost parts of Bulgaria, the north-eastern region of the FYROM and, at least until recently, parts of southern Kosovo (Serbia); Goran: the border region of Kosovo, Albania and the FYROM; Janjev: south-eastern Kosovo (Serbia), from where most speakers have emigrated to Croatia; Krashovan: the region of Caraşova in Caraş-Severin County in the Romanian Banat"
1476,West Flemish,"Belgium, France, Netherlands","BEL, FRA, NLD","vls, zea",Vulnerable,Western Flemish; Zeelandic (Zeêuws),,1500000,"Devos, M.& Vandekerckhove, R. (2006). Taal in stad en land WEST-VLAAMS, Lannoo, 170 pp.
Streektaal.net http://taal.phileon.nl/index.php
",51.0275,3.0541,"the province of Zealand, the Netherlands; West Flanders, Belgium; and French Flanders, where definitively if not severely endangered"
334,Bashkir,Russian Federation,RUS,bak,Vulnerable,Bashkort,,1379727,"А. А. Юлдашев: Башкирский язык. — Языки мира: Тюркские языки. Москва: Индрик, 1997. 206–216.",54.7309,55.9863,the Republic of Bashkortostan and adjacent regions
1067,Chechen,Russian Federation,RUS,che,Vulnerable,,,1331844,,43.1971,45.7031,the Republic of Chechenia and adjacent regions
338,Chuvash,Russian Federation,RUS,chv,Vulnerable,,,1325382,"И. А. Андреев: Чувашский язык. — Языки мира: Тюркские языки. Москва: Индрик, 1997. 480–491.",56.1394,47.2412,Chuvash Republic and adjacent regions
1227,Meithei,India,IND,mni,Vulnerable,"Manipuri, Meitei",,1250000,,24.7667,93.8946,"Manipur (throughout, but concentrated in the Manipur valley)
 "
1114,Tamang,"India, Nepal","IND, NPL","taj, tge, tmk, tsf, tdg",Vulnerable,तामाङ; तामाङ्ग; Murmi (obsolete),,1196639,"Driem, George van. 2001. Languages of the Himalayas. Volumes 1 and 2. Hand-book of Oriental Studies. Section Two: India. Leiden/Boston/Köln: Brill.

Driem, George van. 2007. 'South Asia and the Middle East', pp. 283-347 in Christopher Moseley (ed.) Encyclopedia of the World's Endangered Languages. London/New York: Routledge.

ethnologue.com",27.7365,85.6858,"Dispersed throughout central and eastern hills of Nepal. Bāgmatī, Nārāyaṇī and Janakpur zones, in Kābhrepālañcok, Makvānpur, SIndhupālcok, Nuvākoṭ, Dhādiṅ, Sindhulī, Rāmechāp, Bagmatī, Dolakhā and Rasuvā districts. Also found in India (Sikkim)."
1013,Quechua of Cuzco,Peru,PER,quz,Vulnerable,Quechua Cuzco-Collao,,1115000,,-13.4537,-72.0098,"Cuzco, partes de  Arequipa, Puno, Apurímac (Abancay), Moquegua (Ubinas)."
1024,Eastern Slovak,"Slovakia, Ukraine","SVK, UKR",slk,Vulnerable,,,1000000,"Aleksandr D. Duličenko: Ostslowakisch. — Lexikon der Sprachen des europäischen Ostens. Herausgegeben von Miloš Okuka unter Mitwirkung von Gerald Krenn. Wieser Enzyklopädie des europäischen Ostens 10; Klagenfurt: Wieser, 2002. 355–358.",48.8068,21.7968,"Spiš, Šariš, Zemplín and Abov regions in eastern Slovakia; a regional language not recognized by the SIL"
377,Ligurian,"France, Italy, Monaco","FRA, ITA, MCO",lij,Definitely endangered,Monégasque (dialect),,1000000,,44.5748,8.7011,"Liguria and adjacent areas of Piedmont, Emilia and Tuscany, Italy; the villages of Tende, La Brigue, Fontan, Saorge, Breil-sur-Roya in the eastern corner of the department of Alpes-Maritimes, France; settlements in the towns of Carloforte on the San Pietro island and Calasetta on the Sant’Antioco island off the southwest coast of Sardinia, Italy, as well as in the town of Bonifacio in Corsica; until the twentieth century also Monaco, where Ligurian is still used and studied as a second language, and the villages of Biot, Vallauris, Mons and Escragnoles in the department of Alpes-Maritimes, France"
407,Rusyn,"Hungary, Poland, Romania, Slovakia, Ukraine","HUN, POL, ROU, SVK, UKR",rue,Vulnerable,"Ruthenian, Carpatho-Rusyn. Dialects: Lemko (Lemke), Boyko, Hutzulian",,1000000,"Русиньскый язык. Redaktor naukowy Paul Robert Magocsi. Opole: Uniwersytet Opolski, Instytut Filologii Polskej, 2004. || Marc Stegherr: Rusinisch. — Lexikon der Sprachen des europäischen Ostens. Herausgegeben von Miloš Okuka unter Mitwirkung von Gerald Krenn. Wieser Enzyklopädie des europäischen Ostens 10; Klagenfurt: Wieser, 2002. 399–408. || Encyclopedia of Rusyn history and culture. Paul Robert Magocsi and Ivan Pop, editors. Toronto: University of Toronto Press, 2002.",48.4437,22.9394,Trans-Carpathian region of Ukraine
1515,Talysh,"Azerbaijan, Iran (Islamic Republic of)","AZE, IRN",tly,Vulnerable,,,1000000,,38.814,48.6804,"the northern regions of Gilan and Ardabil provinces, Iran; the southernmost parts of Azerbaijan"
1577,Kui,India,IND,kxu,Vulnerable,"Kuy; Kandh; Khondi; Khond(o); Kodu; Kanda; Kodulu
",,916222,,19.5908,83.9575,"Orissa (Phulbani, Koraput, Ganjam); also in Andhra Pradesh and Madhya Pradesh"
1231,Khasi,India,IND,kha,Vulnerable,,,912000,,25.691,91.8676,eastern half of Meghalaya
1229,Bodo,India,IND,brx,Vulnerable,"Boro, Kachari",,900000,,26.7554,92.8674,"north bank of the Brahmaputra, Sonitpur and Darrang districts"
337,Campidanese,Italy,ITA,sro,Definitely endangered,Campidanese Sardinian,,900000,,39.2991,8.9868,southern Sardinia
1803,K'iche' (Guatemala),Guatemala,GTM,quc,Vulnerable,"Chiquel, Cachbel, Chuil quiché, cunenteco, Cantel Quiché, Quiché",,890596, XI Censo Nacional de Población for number of speakers and language names; contributor H. Antonio García Zúñiga consulted Ethnologue for some locations.,15.0309,-91.1485,"Among the localities listed in the Ethnologue: El Quiché dept., Quetzaltenango, Cunén, Chichicastenango, Joyabaj, San Andrés Sajeabajá, Atitlán in Quetzaltenango dept.; Totinicapán dept, Santa Cruz Quiché"
989,Quechua of Ayacucho,Peru,PER,quy,Definitely endangered,Quechua Ayacucho-Chanka. Chanka (Quechua).,,850000,,-13.1276,-74.2071,"Departamentos de Ayacucho, Huancavelica y partes de  Apurimac y Arequipa."
1117,Newar,Nepal,NPL,new,Definitely endangered,नेवार; Nepal Bhasa; Newari,,825458,"Driem, George van. 2001. Languages of the Himalayas. Volumes 1 and 2. Hand-book of Oriental Studies. Section Two: India. Leiden/Boston/Köln: Brill.

Driem, George van. 2007. 'South Asia and the Middle East', pp. 283-347 in Christopher Moseley (ed.) Encyclopedia of the World's Endangered Languages. London/New York: Routledge.

ethnologue.com",27.6981,85.3198,Kathmandu valley
2222,Mon,"Myanmar, Thailand","MMR, THA",mnw,Vulnerable,Talaing,,800000,,16.4666,97.7833,
1523,Polesian,"Belarus, Poland, Ukraine","BRB, POL, UKR",,Vulnerable,,,800000,"Aleksandr D. Duličenko: Westpolesisch. — Lexikon der Sprachen des europäischen Ostens. Herausgegeben von Miloš Okuka unter Mitwirkung von Gerald Krenn. Wieser Enzyklopädie des europäischen Ostens 10; Klagenfurt: Wieser, 2002. 581–587.",51.8629,23.9501,"the south-west of Belarus, the north-west of the Ukraine and adjacent Poland; a regional language not recognized by the SIL"
701,Tamaceq,Mali,MLI,taq,Definitely endangered,"Tamacheq, Tamasheq",,800000,"Official population figures, Local and international organisations
Numerous publications on background",16.7992,-3.0102,"Central, and northeast Mali, Kidal, Tombouctou areas. 
Also spoken in Algeria, Burkina Faso
"
1069,Avar,Russian Federation,RUS,ava,Vulnerable,,,784840,,42.4801,46.8017,parts of the Republic of Daghestan
1211,Mundari,India,IND,muw,Vulnerable,Horo,,750000,,22.3297,86.0449,"Jharkhand, mainly in  Ranchi Dt.; some speakers in Madhya Pradesh"
425,Welsh,United Kingdom of Great Britain and Northern Ireland,GBR,cym,Vulnerable,y Gymraeg,Cymraeg,750000,"T. Arwyn Watkins: Welsh. — The Celtic languages. Edited by Martin J. Ball with James Fife. London and New York: Routledge, 1993. 289–348.",52.4459,-3.5485,Wales and adjacent parts of England; émigré communities in Patagonia
1202,Angika,"India, Nepal","IND, NPL",anp,Vulnerable,Chhika-Chhiki; Anga; Aangi; Bhagalpuri,,740892,,24.7451,85.3124,Bihar and Jharkhand
1827,Q'eqchi' (Guatemala),Guatemala,GTM,kek,Vulnerable,"K'eqchí, Ketchí, Cacché, Quecchí",,716101, XI Censo Nacional de Población for number of speakers and language names; contributor H. Antonio García Zúñiga consulted Ethnologue for several locations.,15.4707,-90.3722,"Uspantán, Cobán, Panzós, Senahú, San Pedro Carchá, San Juan Chamelco, Lanquín, Cahabón, Chisec, Chahal, San Luis Sayaxché, El Estor, Livingston"
398,Picard,"Belgium, France","BEL, FRA",pcd,Severely endangered,"ch’ti, ch’timi, rouchi",,700000,"Jean-Michel Eloy: Le picard, langue d'oïl http://www.encyclopedie.picardie.fr/index.php/Le_picard,_langue_d%27o%C3%AFl",50.2331,2.7905,"the regions of Picardy (Picardie) and Nord-Pas-de-Calais, France; the area extending from Tournai to Mons in the western part of the province of Hainaut, Belgium"
1228,Kokborok,"Bangladesh, India","BGD, IND",trp,Vulnerable,Tripuri,,695000,,23.7752,91.6918,"Triupura, and Karimjang Dt. of Assam"
415,Basque,"Spain, France","ESP, FRA",eus,Vulnerable,,euskara,660000,"R. L. Trask: The history of Basque. London: Routledge, 1997. | José Ignacio Hualde & Jon Ortiz de Urbina: A grammar of Basque. Mouton Grammar Library 26; Berlin: Mouton de Gruyter, 2003.",43.133,-2.0764,"Basque Autonomous Region (the provinces of Bizkaia, Gipuzkoa and Araba) and the autonomous province of Navarre, Spain; Labourd, Basse-Navarre and Soule in the department of Pyrénées-Atlantiques, France"
1065,Kabard-Cherkes,"Russian Federation, Turkey","RUS, TUR",kbd,Vulnerable,Kabardian,,650000,"Wolfgang Schulze: Kabardinisch. — Lexikon der Sprachen des europäischen Ostens. Herausgegeben von Miloš Okuka unter Mitwirkung von Gerald Krenn. Wieser Enzyklopädie des europäischen Ostens 10; Klagenfurt: Wieser, 2002. 861–867.",43.7393,43.4289,the Kabard-Balkar Republic and the Karachay-Cherkes Republic in the Russian Federation as well as diaspora communities in Turkey and the Middle East
1559,Mandeali,India,IND,mjl,Definitely endangered,Mandi; Mandiali; Pahari Mandiyali,,611930,,31.4099,76.9921,Himachal Pradesh
353,Friulian,Italy,ITA,fur,Definitely endangered,,,600000,,46.1037,13.1396,"the Autonomous Region Friuli-Venezia Giulia except Trieste Province and western and eastern border regions, and Portogruaro area in Venezia Province in Veneto Region; also spoken in émigré communities in Romania and elsewhere"
997,Quechua of Ancash and Huánuco,Peru,PER,"qec, qed, qee, qan, qei, qub, qej, qel, qem",Definitely endangered,"Quechua, Nunashimi. Quechua Ancash-Huánuco. Huaylas Quechua.",,600000,,-9.4598,-77.1789,"Zona central del Perú, departamentos de  Ancash Y Huánuco."
1947,Walloon,"Belgium, France, Luxembourg","BEL, FRA, LUX",wln,Definitely endangered,,,600000,,50.4575,4.8559,"the greater part of the province of Liège, the southern part of the province of Brabant, the province of Namur, the northern part of the province of Luxembourg and the eastern part of the province of Hainaut, Belgium; the north of the department of Ardennes (town of Givet), France, where severely endangered; formerly also in two or three villages (Doncols, Sonlez) in Luxemburg, where the last speakers died in the 1970s"
1091,Mising,India,IND,mrg,Definitely endangered,"Miri, Mishing, Miri-Mishing",,550000,,26.9612,94.0539,"Assam, mostly Lakhimpur, Sonitpur and Dhemaji districts; some speakers also live across the border in Arunachal Pradesh
"
1066,Ossete,"Georgia, Russian Federation","GEO, RUS",oss,Vulnerable,Ossetic,,550000,"З. Г. Исаева & М. И. Исаев: Осетинский язык. — Языки Российской Федерации и соседних государств: энциклопедия II. Москва: Наука, 2001.
",42.9564,44.4946,North Ossetia and South Ossetia
1230,Mizo,India,IND,lus,Vulnerable,Lushai,,529000,,22.9988,92.9223,"throughout Mizoram; Manipur, Churachandpur Dt. Also spoken in Burma"
1070,Dargwa,Russian Federation,RUS,dar,Vulnerable,,,503523,,42.1145,47.4938,parts of the Republic of Daghestan
331,Aromanian,"Albania, Bulgaria, Greece, The former Yugoslav Republic of Macedonia, Serbia","ALB, BGR, GRC, MKD, SRB",rup,Definitely endangered,Macedo-Romanian; Vlach; Tsintsar,,500000,"Petar Atanasov: Aromunisch. — Lexikon der Sprachen des europäischen Ostens. Herausgegeben von Miloš Okuka unter Mitwirkung von Gerald Krenn. Wieser Enzyklopädie des europäischen Ostens 10; Klagenfurt: Wieser, 2002. 77-82.
http://www.ethnologue.org/show_language.asp?code=rup
",40.2292,21.1376,"Thessaly and Epirus in northern Greece; the central parts of Albania; several small pockets in the FYROM, Greece and Bulgaria; immigrant groups deriving from the eighteenth century in Serbia, especially between Niš and Kladovo; many Aromanian immigrants since the early twentieth century also in Romania"
2485,Brahui,"Iran (Islamic Republic of), Pakistan, Afghanistan","IRN, PAK, AFG",brh,Vulnerable,,,500000,"Dr. George van Driem in Encyclopaedia of World Endangered Languages, ed. by Christopher Moseley. 2007",29.0369,66.5826,"Kalat district and parts of Hyderabad, Karachi and Khairpur districts; also small communities in Afghanistan and Iran"
375,Languedocian,France,FRA,oci,Severely endangered,occitan languedocien; langadocian,lengadocian,500000,,43.8899,2.5378,"an area from Bordeaux in the northwest to Montpellier in the southeast, and from Toulouse in the southwest to Rodez in the northeast, covering the departments of Aveyron, Lot, Lot-et-Garonne, Tarn-et-Garonne, Tarn, Aude, Hérault, the eastern parts of Haute-Garonne and Ariège, the southern parts of Dordogne, the Aurillac region of Cantal, the western parts of Gard, and smaller areas in Lozère, Pyrénées-Orientales, and Gironde; the original ISO code [lnc] for Languedocian has been retired and replaced with [oci] on false grounds"
1072,Lezgian,"Azerbaijan, Russian Federation","AZE, RUS",lez,Vulnerable,,,500000,"У. А. Мейланова: Лезгинский язык. — Языки Российской Федерации и соседних государств: энциклопедия II. Москва: Наука, 2001.",41.4921,48.0541,southern Daghestan in the Russian Federation; northern Azerbaijan
1558,Mahasui,India,IND,bfz,Definitely endangered,Kiunthali; Kiuntali,,496024,,31.2738,77.1295,Himachal Pradesh
1118,Magar,Nepal,NPL,"mgp, mrd",Definitely endangered,मगर; Manggar; Magari,,489383,"Driem, George van. 2001. Languages of the Himalayas. Volumes 1 and 2. Hand-book of Oriental Studies. Section Two: India. Leiden/Boston/Köln: Brill.

Driem, George van. 2007. 'South Asia and the Middle East', pp. 283-347 in Christopher Moseley (ed.) Encyclopedia of the World's Endangered Languages. London/New York: Routledge.

ethnologue.com",28.0816,83.4301,"Pālpā, Syāṅjā, Tanahũ and Gorkhā districts."
1822,Mam (Guatemala),Guatemala,GTM,,Vulnerable,,,477717,XI Censo Nacional de Población for number of speakers and names of languages; contributor H. Antonio García Zúñiga consulted Ethnologue for some locations,14.9305,-91.9078,"Towns of Tejumulco and Ichiguán in Huehuetenango; towns of San Miguel Ixtahuacán, Concepción Tutapa and others in
San Marcos dept; San Sebastián, town of Todos Santos Cuchumatán and other towns in Huehuetenango dept., Quetzaltenango dept., Retalhuleu dept, San Juan Ostuncalco, San Martín Sacatepequez and other towns in Ostuncalco"
418,Udmurt,Russian Federation,RUS,udm,Definitely endangered,,,463837,"Sandor Csucs: Udmurt. — The Uralic languages. Edited by Daniel Abondolo. London & New York: Routledge, 1998. 276–304.",57.2315,52.8662,"the Udmurt Republic and parts of Tatarstan, the Republic of Mariy-El, Bashkortostan, and Kirov (Vyatka) and Perm’ provinces"
1506,Huasteca Náhuatl,Mexico,MEX,nhe,Vulnerable,Mexicano,,463183,"Census 2000, information provided by INALI for percentages of child speakers; Lastra (1986)",21.3835,-98.9902,"Locality of Xilitla and others in the municipality of Tamazunchale, municipalities of Cuatlamayán, Coxcatlán, and others in the state of San Luis Potosí; municipalities of Platón Sánchez, Chicontepec, Álamo, Ixhuatlán de Madero in the state of Veracruz; municipality of Francisco Z. Mena in the state of Puebla; municipalities of Tepehuacán de Guerrero, Huautla, Yahualica, Xoxiatipan, Tianguistengo, Zacualtipan and Metzquititlán in the state of Hidalgo"
1074,Kumyk,Russian Federation,RUS,kum,Vulnerable,,,458121,"Л. С. Левитская: Кумыкский язык. — Языки мира: Тюркские языки. Москва: Индрик, 1997. 319–327.",43.397,46.9775,parts of the Republic of Daghestan
508,Yakut,Russian Federation,RUS,sah,Vulnerable,Sakha,,456288,"Н. К. Антонов: Якутский язык. — Языки мира: Тюркские языки. Москва: Индрик, 1997.",62.3496,130.8691,the Republic of Sakha (Yakutia)
1801,Kaqchikel (Guatemala),Guatemala,GTM,,Vulnerable,,,444954,XI Censo Nacional de Población for number of speakers and language names; contributor H. Antonio García Zúñiga consulted Ethnologue for some locations,14.7814,-90.7925,"Among the many localities listed in Ethnologue: Acatenango in the municipality of Acatenango, Chimaltenango department; Sacatepéquez department; San Martín in municipality of Jilotepeque; Chimaltenango in municipality of Santa María de Jesús, Santo Domingo Xenacoj, Antigua, department of Sololá"
1165,Karbi,India,IND,mjw,Vulnerable,Mikir,,420000,,26.2934,93.2299,"Assam, Karbi Anglong, Kamrup and Nowgong districts; Meghalaya, Jaintia, and East Khasi Hills districts; Nagaland, around Dimapur."
347,Eastern Mari,Russian Federation,RUS,mhr,Definitely endangered,Meadow Mari,,414211,"Eeva Kangasmaa-Minn: Mari. — The Uralic languages. Edited by Daniel Abondolo. London & New York: Routledge, 1998. 219–248. | Sirkka Saarinen: Tscheremissisch. — Lexikon der Sprachen des europäischen Ostens. Herausgegeben von Miloš Okuka unter Mitwirkung von Gerald Krenn. Wieser Enzyklopädie des europäischen Ostens 10; Klagenfurt: Wieser, 2002. 719–733.",56.632,47.8784,"central and eastern parts of the Republic of Mariy-El and parts of Bashkortostan, Tatarstan, the Udmurt Republic, and Yekaterinburg, Perm’ and Orenburg provinces"
1068,Ingush,Russian Federation,RUS,inh,Vulnerable,,,405343,,43.145,45.1043,the Republic of Ingushetia and adjecent regions
350,Erzya,Russian Federation,RUS,myv,Definitely endangered,,,400000,"Gabor Zaicz: Mordva. — The Uralic languages. Edited by Daniel Abondolo. London & New York: Routledge, 1998. 184–218.",54.1302,45.4394,"the eastern parts but also small pockets in the northwest and south of the Republic of Mordovia; also several areas in Nizhniy Novgorod, Samara, Saratov and Orenburg provinces, Tatarstan and Bashkortostan"
1212,Ho,India,IND,hoc,Vulnerable,Kol,,400000,,21.637,86.4404,"Jharkhand, Singhbhum Dt.; Orissa, Mayurbhanj and Koenjhar districts; West Bengal. "
2165,Judezmo (Israel),Israel,ISR,lad,Severely endangered,Ladino; Judeo-Spanish; Sephardic,,400000,"Armin Hetzer: Sephardic. — Minor languages of Europe. Thomas Stolz (ed.). Bochum-Essener Beiträge zur Sprachwandelforschung 30, Bochum: Brockmeyer, 2001. | Muhamed Nezirović: Judenspanisch. — Lexikon der Sprachen des europäischen Ostens. Herausgegeben von Miloš Okuka unter Mitwirkung von Gerald Krenn. Wieser Enzyklopädie des europäischen Ostens 10; Klagenfurt: Wieser, 2002. 101–116.",32.0872,34.7737,"resettled communities in Israel where the majority of the speakers live, and in the United States and several European countries; cf. Judezmo (Europe)"
534,Lalo,China,CHN,"yik, ywt, yit, ywl",Vulnerable,,,400000,Bradley 2008,25.383,99.9426,
378,Limousin,France,FRA,oci,Severely endangered,occitan limousin,lemosin,400000,,46.0579,1.8017,"the departments of Corréze and Haute-Vienne, most of Creuse, the northern parts of Dordogne, and the eastern parts of Charente; the original ISO code [lms] for Limousin has been retired on false grounds"
381,Logudorese,Italy,ITA,src,Definitely endangered,Logudorese Sardinian; Logudorese-Nuorese,,400000,,40.1116,9.1845,central Sardinia
626,Mapuche (Chile),Chile,CHL,arn,Definitely endangered,Mapudungun. Araucanian.,,400000,"Smeets “A Mapuche Grammar” (Berlin, 2008)",-38.5653,-73.081,"Región La Araucanía (provinces of Cautín and Malleco). Provinces of Arauco, Bío-Bío and Valdivia. Dispersed areas in Argentina: Neuquén, Chubut, La Pampa, Buenos Aires."
1503,Central Náhuatl,Mexico,MEX,"nhn, nch, ncx",Vulnerable,"Mexicano, Aztec (in English only)",,395581,"Census 2000, information provided by INALI for percentages of child speakers; Lastra (1986)",19.191,-99.0236,"Locality of Milpa Alta and others with few remaining speakers in the south of the Distrito Federal; several municipalities in the state of Mexico such as Tianguistenco, Jalatlaco, Coyotepec and Huehuetoca; municipalities of Chiautempan, Mazatecocho, Contla and othes in the state of Tlaxcala; several municipalities in the state of Puebla such as Atlixco and Huejotzingo;  in the state of Hidalgo, municipalities such as Acaxochitlán and Pahuatlán; in the state of Veracruz, several municipalities such as Rafael Delgado and Zongolica; municipality of Teotitlán and others in the state of Oaxaca"
424,Moselle Franconian,"Germany, Belgium, France, Luxembourg","DEU, BEL, FRA, LUX",ltz,Vulnerable,Luxembourgish; Luxemburgian; luxembourgeois; люксембургский,Lëtzebuergesch,390000,,49.6071,6.1248,Luxembourg and adjacent regions of neighbouring countries
964,Bantawa,Nepal,NPL,bap,Vulnerable,बान्तवा; बान्टावा; बन्टावा; Bantaba; Bontawa,,371056,"Driem, George van. 2001. Languages of the Himalayas. Volumes 1 and 2. Hand-book of Oriental Studies. Section Two: India. Leiden/Boston/Köln: Brill.

Driem, George van. 2007. 'South Asia and the Middle East', pp. 283-347 in Christopher Moseley (ed.) Encyclopedia of the World's Endangered Languages. London/New York: Routledge.

ethnologue.com",27.0994,87.0048,"Bhojur district in Nepal.
Bantawa Rai that migrated to Sikkim, India, can be mainly found in the West District (Youksom, Tashiding, Geyzing, Dentam, Rinchenpong, Soreng, Jorthang), South District (Ralong, Damthang, Namchi, Temi, Tarku, Melli) and in the East District (Gangtok, Badong, Rumtek, Pakyong, Rehnok, Regu, Rolep Assam Lingjey).
"
1424,Santa,China,CHN,sce,Vulnerable,Dongxiang,,360000,"Stephen S. Kim: Santa. — The Mongolic languages. Edited by Juha Janhunen. London and New York: Routledge, 2003. 346–363.",35.5411,102.7935,"Dongxiang Autonomous County of Linxia Hui Autonomous Prefecture, Gansu Province; also émigré communities elsewhere in Gansu and in Sinkiang (Xinjiang)"
1057,Mingrelian,Georgia,GEO,xmf,Definitely endangered,Megrel,,350000,"Г. А. Климов: Мегрельский язык. — Языки Российской Федерации и соседних государств: энциклопедия II. Москва: Наука, 2001.",42.4599,41.7205,western lowlands of Georgia
426,West Frisian,Netherlands,NLD,fry,Vulnerable,,,350000,"Pieter Meijes Tiersma, 1985. Frisian Reference Grammar. Foris Publications, Dordrecht-Holland/Cinnaminson – USA. 
Streektaal.net http://taal.phileon.nl/index.php",53.1006,5.6579,the province of Friesland and the western parts of the province of Groningen
1113,Gurung,Nepal,NPL,"ggn, gvr",Definitely endangered,गुरुङ; गुरुङ्ग; Tamu,,338925,"Driem, George van. 2001. Languages of the Himalayas. Volumes 1 and 2. Hand-book of Oriental Studies. Section Two: India. Leiden/Boston/Köln: Brill.

Driem, George van. 2007. 'South Asia and the Middle East', pp. 283-347 in Christopher Moseley (ed.) Encyclopedia of the World's Endangered Languages. London/New York: Routledge.

ethnologue.com",28.275,84.1782,"Gorkhā , Kāskī, Lamjuṅ , Parbat, Syāṅjā, Tanahũ and Dhādiṅ districts"
295,Guajiro,"Colombia, Venezuela (Bolivarian Republic of)","COL, VEN",guc,Vulnerable,Wayuu (people). Wayuunaiki (language).,,318500,"Arango and Sánchez, 'Los pueblos indígenas de Colombia' (2004)
Rodríguez en González, 'Lenguas indígenas de Colombia' (2000)
Mosonyi and Mosonyi, 'Manual de lenguas indígnas de Venezuela' (2000)
Álvarez, 'Estudios de lingüística guajira' (1994)",11.8673,-71.9824,
1075,Karachay-Balkar,Russian Federation,RUS,krc,Vulnerable,,,302748,"А. А. Чеченов & И. Х. Ахматов Карачаево-балкарский язык. — Языки мира: Тюркские языки. Москва: Индрик, 1997. 272–286.",44.2137,42.8466,parts of the Karachay-Cherkes Republic and the Kabard-Balkar Republic
1064,Adyge,"Iraq, Israel, Jordan, The former Yugoslav Republic of Macedonia, Russian Federation, Syrian Arab Republic, Turkey","IRQ, ISR, JOR, MKD, RUS, SYR, TUR",ady,Vulnerable,Adyghe; Western Circassian,,300000,"Wolfgang Schulze: Tscherkessisch. — Lexikon der Sprachen des europäischen Ostens. Herausgegeben von Miloš Okuka unter Mitwirkung von Gerald Krenn. Wieser Enzyklopädie des europäischen Ostens 10; Klagenfurt: Wieser, 2002. 883–890.",44.9181,39.7485,"the Republic of Adygea and adjacent regions in the Russian Federation and many diaspora communities in Turkey, the Middle East and Western Europe"
469,Buryat (Trans-Baikal),Russian Federation,RUS,"bxm, bxr, bxu",Definitely endangered,,,300000,"Elena Skribnik: Buryat. — The Mongolic languages. Edited by Juha Janhunen. London and New York: Routledge, 2003. 102–128.",50.8336,109.5117,the Republic of Buryatia and Aga (Aginskiy) Buryat Autonomous District and elsewhere in Chita Province
1574,Kurru,India,IND,yeu,Definitely endangered,"Yerulula; Yerukala;  Yerkula; Kurru Bhasha;  Yerukla; Erukla; Kurutha
",,300000,,16.6151,81.6284,"Tamil Nadu, Andhra Pradesh and Karnataka"
1578,Kuvi,India,IND,kxv,Definitely endangered,"Kuwi; Kuvinga; Kond; Kuvi-Kond; Khondi; Khondh; Jatapu 
",,300000,,18.9478,83.5839,"Orissa (Koraput, Kalahandi, Ganjam, and Phulbani) and Andhra Pradesh"
1028,Limbu,"India, Nepal","IND, NPL",lif,Definitely endangered,लिम्बू; Yakthungba,,300000,"Driem, George van. 2001. Languages of the Himalayas. Volumes 1 and 2. Hand-book of Oriental Studies. Section Two: India. Leiden/Boston/Köln: Brill.

Driem, George van. 2007. 'South Asia and the Middle East', pp. 283-347 in Christopher Moseley (ed.) Encyclopedia of the World's Endangered Languages. London/New York: Routledge.

ethnologue.com",27.096,87.7356,"Eastern Nepal, India.
Tehrathum, Ilām, Pāñcthar, Tāplejuṅ, Dhankuṭā districs."
2452,Moroccan Judeo-Arabic (Israel),Israel,ISR,aju,Definitely endangered,Judeo-Moroccan,,300000,"H. Zafrani, D. Schroeter, various websites (S.Mezhoud, 2008)
",32.0476,34.7552,Tel Aviv
401,Plautdietsch,Ukraine,UKR,pdt,Definitely endangered,,,300000,,47.0738,35.5545,originally Khortytsya and Molochna near Zaporizhzhya; émigré communities in other parts of the Ukraine and in what is now withing the Russian Federation and further in the Americas; last speakers in the Ukraine were deported during the Second World War to Central Asia and Siberia; many speakers have recently emigrated to Germany; an outlying dialect of Low Saxon
1078,Pontic Greek,"Armenia, Georgia, Greece, Russian Federation, Turkey, Ukraine","ARM, GEO, GRC, RUS, TUR, UKR",pnt,Definitely endangered,,,300000,"Georges Drettas: Aspects pontiques. Paris: Association de Recherche Pluridisciplinaires (ARP), 1997.",40.847,40.0149,"originally along the Black Sea coast of Turkey and adjacent Georgia; some speakers remain in the towns of Of and Sürmene, but most have emigrated to Greece; émigré communities also in southern Russia and the Caucasus; an outlying dialect of Greek"
1935,"Quichua (Cotopaxi, Tungurahua and Chimborazo)",Ecuador,ECU,"qxr, qug, qvi, qvj, qvo, qvz, qxl",Definitely endangered,"Kichwa, Runashimi, Runa simi (Quichua, Chimborazo Highland, Ethnologue),   Central Highlands Quichua, Quechua",,300000,"- www.codenpe.gov.ec/htm.htm
- www.ethnologue.com
- Haboud, Marleen. 2007-08. Proyecto Oralidad y Modernidad. Language vitality in Tingo Pucara (Cotopaxi) and La Esperanza (Chimborazo) (internal report) (unpublished)",-1.8673,-78.9257,"Provinces of: Cotopaxi, Tungurahua (Southwest of the Province), Bolivar (Central Highlands), Chimborazo, counties of Riobamba, Colta, Guamote, Chambo, Guano, Pallatanga, Penipe and Cumandá"
1479,Waxiang,China,CHN,wxa,Vulnerable,Waxianghua,,300000,,28.5652,110.3576,western Hunan
1434,Oyrat,"China, Kyrgyzstan, Mongolia","CHN, KGZ, MNG",xal,Definitely endangered,Oirat,,280000,"Ágnes Birtalan: Oirat. — The Mongolic languages. Edited by Juha Janhunen. London and New York: Routledge, 2003. 210–228.",46.195,88.7255,"the Kobdo and Ubsu aimaks of Mongolia; Bortala, Hoboksar, Tarbagatai and Bayangol regions in northern Sinkiang, Kukunor region in Qinghai Province and Alashan (Alshan) League in western lnner Mongolia, China; Chelpek and Boru Bashi, east of lssyk Köl, Kyrgyzstan"
1563,Garhwali,India,IND,gbm,Vulnerable,Gadhavali; Gadhawala; Gadwahi; Gashwali; Godauli; Gorwali; Gurvali; Girwali,,279500,,30.0976,79.1235,"Uttarakhand, in Garhwal area"
1380,Bade,Nigeria,NGA,bde,Vulnerable,,,250000,"Ethnologue, Roger Blench",12.801,11.1181,
336,Breton,France,FRA,bre,Severely endangered,brezhoneg,,250000,"Fañch Broudic : Parler breton au XXIe siècle
Emgleo Breiz publishing company (2009)
ISBN 978-2-911210-91-3.",48.2246,-3.9331,western Brittany; many émigré communities
352,Gascon,"Spain, France","ESP, FRA",oci,Definitely endangered,occitan gascon; local name in Catalonia: Aranese; dialect: béarnais,gascon,250000,,43.1811,-0.1428,"the departments of Landes, Gers, and Hautes-Pyrénées, the eastern parts of Pyrénées-Atlantiques, the western parts of Haute-Garonne and Ariège, and the southern and western parts of Gironde, France; the Aran Valley, northwestern Catalonia, Spain; the original ISO code [gsc] for Gascon has been retired on false grounds"
2245,Phula (China),China,CHN,"ypa, ypg, ypo, yip, ypn, yhl, ypb, phh, ypm, ypp, yph, ypz",Vulnerable,"Phala, Phola, Pholo, Phowa, Phukha, Phupha, Phuza",,250000,Bradley 2007,22.6001,104.0004,
1205,Sora,India,IND,srb,Vulnerable,"Saora, Savara",,250000,,19.1244,83.2104,"Orissa, mainly Ganjam Dt., but also Koraput and Phulbani districts. Parts of Andhra Pradesh."
1119,Konyak,India,IND,nbe,Vulnerable,,,248000,,26.9367,95.1745,"Nagaland, Mon and Tuensang districts."
1130,Ao,India,IND,ngo,Vulnerable,,,243000,,26.4361,94.6472,Wokho and parts of Mokokchung districts
1234,Tuvan,"China, Mongolia, Russian Federation","CHN, MNG, RUS",tyv,Vulnerable,,,242754,"Ш. Ч. Сат: Тувинский язык. — Языки мира: Тюркские языки. Москва: Индрик, 1997. 384–393.",51.7134,94.3945,the Republic of Tuva in the Russian Federation and adjacent regions in China and Mongolia
1970,Nafusi,Libyan Arab Jamahiriya,LBY,jbn,Severely endangered,"Nefusi, Tamazight of Jabal Nafusi, Jebel Nefusi, Jbel Nafusi, Adrar Nufusi",,240000,"ُEthnologue
Libyan sources",32.6393,13.4252,"Language spoken in the regions of Tripolitania, western Libya, isolated area around the towns of Nalut and Yafran, Jabal Nafusah Region, coastal area around Zuara, west of Tripoli."
2232,Suret,"Armenia, Iran (Islamic Republic of), Iraq, Syrian Arab Republic, Turkey","ARM, IRN, IRQ, SYR, TUR","aii, cld",Definitely endangered,"Suryaya Swadaya, Lishana Aturaya, Lishana Kaldaya, Suryani, Assyrian Neo-Aramaic, Chaldean Neo-Aramaic, Neo-Syriac, Christian Northeastern Neo-Aramaic",,240000,"B.Poizat, J.Sibille (p.c., 2008)
S. E. Fox, The Relationships of the Eastern Neo-Aramaic Dialects, 
J of the American Oriental Society, 114:2, Apr.-Jun.1994, pp. 154-
162.
",36.4477,43.2971,"Iraqi Kurdistan, western Iranian Azerbaijan and Kurdistan, northeast Syria near the Turkish border.  Extinct in Turkey.  A large number of speakers are in diaspora in Europe, North and South America, and Australia."
1592,Malto,India,IND,kmj,Definitely endangered,Pahariya; Kumarbhag Pahariya; Malti; Maltu; Maler; Mal; Mad,,224926,,23.7853,85.4736,"Jharkhand (Godda, Santhal Pargana), Bihar and West Bengal (Bankura, Barddhaman, and Murshidabad), and also in Orissa (Mayurbhanj)"
1600,Khowar,Pakistan,PAK,khw,Vulnerable,"Khawar, Chitrali, Citrali, Chitrari, Arniya, Patu, Qashqari, Kashkari",,222800,"Decker, Kendall D. 1992. Languages of Chitral. Sociolinguistic Survey of Northern Pakistan, 5. Islamabad: National Institute of Pakistan Studies, Quaid-i-Azam University and Summer Institute of Linguistics. xxii, 257 p.
Available at http://www.sil.org/sociolx/pubs/abstract.asp?id=32850.

Dr. George van Driem in Encyclopedia of World's Endangered Languages, ed. by Christopher Moseley. 2007",35.8667,71.7956,"Chitral of NWFP; Shandur Pass to Fupis in Ghizr Valley, Yasin and Ishkhoman valleys in Gilgit Agency of Northern Areas of Pakistan."
2481,Maiya,Pakistan,PAK,mvy,Vulnerable,Maiyā; Indus Kohistani,,220000,"Dr. George van Driem in Encyclopaedia of World Endangered Languages, ed. by Christopher Moseley. 2007",35.3151,72.908,Indus Kohistani district
373,Komi,Russian Federation,RUS,kpv,Definitely endangered,“Komi-Zyryan” (calque from Russian); коми-зырянский,,217316,"Anu-Reet Hausenberg: Komi. — The Uralic languages. Edited by Daniel Abondolo. London & New York: Routledge, 1998. 305–326. | Paula Kokkonen: Syrjänisch. — Lexikon der Sprachen des europäischen Ostens. Herausgegeben von Miloš Okuka unter Mitwirkung von Gerald Krenn. Wieser Enzyklopädie des europäischen Ostens 10; Klagenfurt: Wieser, 2002. 709–718.",62.3087,51.5917,"the Komi Republic and parts of Nenets Autonomous District, Arkhangel’sk Province, Yamal Nenets Autonomous District, Murmansk Province and other regions"
365,Alpine Provençal,"France, Italy","FRA, ITA",oci,Definitely endangered,occitan alpin (fr); vivaro-alpin (fr); gavot (fr),provençau aupenc,200000,,44.7467,6.6796,"the upper valleys of Piedmont (Val Mairo, Val Varacho, Val d’Esturo, Entraigas, Limoun, Vinai, Pignerol, Sestriero), Italy; the departments of Ardèche (except the north and the western border areas), Drôme (except the north), Hautes-Alpes, the northern parts of Alpes de Haute-Provence, and the southernmost parts of Isère, France; severely endangered in France; the original joint ISO code [prv] for Alpine Provençal and Provençal has been retired on false grounds"
355,Gallo,France,FRA,fra,Severely endangered,angevin (dialect),galo,200000,"« Pratiques et représentations de la langue et de la culture régionales en Haute Bretagne », Rapport de recherche, Par André Le Coq & Philippe Blanchet, Centre de Recherche sur la Diversité Linguistique de la Francophonie - 2006
http://www.uhb.fr/alc/erellif/credilif/Textes/RapportGallo1.pdf

Association Chubri (Bèrtran Ôbrée) - http://www.chubri.org",47.931,-2.0544,"Ille-et-Vilaine, Loire-Atlantique, dans les deux tiers est des Côtes d'Armor et dans le tiers Est du Morbihan."
1384,Gera,Nigeria,NGA,gew,Vulnerable,,,200000,"Roger Blench, Ethnologue",10.5553,10.0579,
1570,Irula,India,IND,iru,Vulnerable,Eravallan; Erukala; Irava; Irulan; Irular; Irular Mozhi; Irulavan; Iruliga; Iruligar; Kad Chensu; Korava,,200000,,11.4369,76.5032,"Tamil Nadu, Kerala, Karnataka and Andhra Pradesh"
1204,Kharia,India,IND,khr,Vulnerable,"Khadia, Karvi",,200000,,21.8003,85.4956,"Jharkhand, Ranchi, West Singhbhum, and East Singhbhum districts; Chhattisgarh, Raigarh, Jashpur, Durg, Bilaspur and Raipur districts; Orissa, Sundargarh, Sambalpur and Mayurbhanj districts"
847,Khorasani Turk,Iran (Islamic Republic of),IRN,kmz,Vulnerable,Quchani,,200000,"Languages of Iran, http://www.everytongue.com/iran/index.htm
",36.6596,57.854,"Northeast Iran, in the northern part of Khorasan Province, especially northwest of Mashhad."
1210,Korku,India,IND,kfq,Vulnerable,,,200000,,20.3034,80.2441,"Madhya Pradesh, Betul, Hoshangabad and East Nimar (Khandwa) Districts; Maharashtra, Amravati, Buldana and Akola districts."
328,Moksha,Russian Federation,RUS,mdf,Definitely endangered,,,200000,"Gabor Zaicz: Mordva. — The Uralic languages. Edited by Daniel Abondolo. London & New York: Routledge, 1998. 184–218.",54.1817,43.2751,the western parts of the Republic of Mordovia and the adjacent parts of Ryazan’ and Penza provinces; also pockets in Tatarstan and Orenburg Province
7,Western Armenian (Middle East),"Iraq, Lebanon, Syrian Arab Republic","IRQ, LBN, SYR",hye,Definitely endangered,Arevmdahayeren,արևմտահայ,200000,"Haig Der-Houssikian (2008, p.c.)
Hagop Gulludjian (2008 p.c.)",33.884,35.5133,"Primarily in the areas of Beirut, Lebanon and Aleppo, Syria; also in Cairo, Egypt and in Iraq and Turkey.  A large number of speakers are in diaspora, especially in the USA, but also in Canada, Europe, and South America."
2225,Western Cham,Cambodia,KHM,cja,Vulnerable,,,200000,,12.0333,105.4333,
1258,Tshangla,"Bhutan, China, India","BTN, CHN, IND",tsj,Vulnerable,Shâchop; Sharchop; Tsangla; Sangla; Menba; Monpa,,193000,"Driem, George van. 1991. Report on the First Linguistic Survey of Bhutan. Thimphu: Royal Government of Bhutan.

Driem, George van. 2001. Languages of the Himalayas. Volumes 1 and 2. Hand-book of Oriental Studies. Section Two: India. Leiden/Boston/Köln: Brill.

Driem, George van. 2007. 'South Asia and the Middle East', pp. 283-347 in Christopher Moseley (ed.) Encyclopedia of the World's Endangered Languages. London/New York: Routledge.

ethnologue.com",27.1275,91.9335,"Eastern Bhutan, in Trashigang, Pêmagatshä, Samdru Jongkhar and Monggar districts.
India, Arunachal Pradesh,Tawang and West Kameng districts.
Southeastern Tibet, Motuo (Medoz, Medog) and Linzhi (Ngingchi) counties.
"
1161,Thado,India,IND,tcz,Vulnerable," Thadou, Kuki, Kuki- Thado",,191000,,24.4521,93.2354,"Manipur, Chandel Dt; Nagaland, Kohima District.  Also spoken in Burma, Possibly some speakers also in Mizoram."
389,Gagauz (Bessarabia),"Republic of Moldova, Ukraine","MDA, UKR","bgx, gag",Definitely endangered,,,180000,"Wolfgang Schulze: Gagausisch. — Lexikon der Sprachen des europäischen Ostens. Herausgegeben von Miloš Okuka unter Mitwirkung von Gerald Krenn. Wieser Enzyklopädie des europäischen Ostens 10; Klagenfurt: Wieser, 2002. 781–786.",46.0922,28.7951,"since eighteenth- and nineteenth-century immigration, Gagauz has been spoken in the Bujak region, which covers the towns and surrounding areas of Comrat, Ceadîr-Lunga, Basarabeasca, Taraclia and Vulcăneşti in the south of the Republic of Moldova and the adjacent Izmail region of Odessa (Odesa) Province in the Ukraine"
1557,Kului,India,IND,kfx,Definitely endangered,Kulvi; Kulwali; Kauli; Kullui; Kulu Boli; Kulu Pahari; Seraji,,170770,,31.4403,77.1487,"Himachal Pradesh, Kulli district"
981,Adi,"China, India","CHN, IND",adi,Vulnerable,Abor,,170000,,28.3527,95.2294,East Siang District; Upper Siang District
1132,Lhota,India,IND,njh,Vulnerable,,,170000,,26.1603,94.3725,"Nagaland, Wokha Dt."
977,Nyishi,India,IND,dap,Vulnerable,"Nishi, Nisi, Nising, Daphla, Dafla,",,170000,,27.5277,93.0981,"Arunachal Pradesh, Papum Pare, Lower Subansiri, Kurung Kumey and Upper Subansiri districts."
1898,Ngäbere (Panama),Panama,PAN,gym,Vulnerable,"Ngäbere, Guaymí",,169130,"Census 2000, article by Constenla",9.3395,-82.2428,"Bocas del Toro, Veraguas, Chiriquí provinces in western Panama"
1582,Kodagu,India,IND,kfa,Definitely endangered,"Coorgi
",,166187,,11.6952,75.9375,Karnataka
340,Corsican,"France, Italy","FRA, ITA",cos,Definitely endangered,,,160000,"Jean Sibille: Les langues régionales. Dominos 220; [Paris]: Flammarion, 2000.",42.0819,9.0307,Corsica (Corse); also spoken on Maddalena Island off the northeast coast of Sardinia and in many émigré communities
1253,Dzongkha,Bhutan,BTN,dzo,Vulnerable,Drukke; Drukha; Drukpa; Bhutanese; Jonkha; Zongkhar; Lunakha (dialect); Lâyakha (dialect),,160000,"Driem, George van. 1991. Report on the First Linguistic Survey of Bhutan. Thimphu: Royal Government of Bhutan.

Driem, George van. 2001. Languages of the Himalayas. Volumes 1 and 2. Hand-book of Oriental Studies. Section Two: India. Leiden/Boston/Köln: Brill.

Driem, George van. 2007. 'South Asia and the Middle East', pp. 283-347 in Christopher Moseley (ed.) Encyclopedia of the World's Endangered Languages. London/New York: Routledge.

ethnologue.com",27.44,89.6731,"Western Bhutan, in Hâ, Chukha, D'agana, 'Wardi Phodr'a, Paro, Thimphu, Pünakha and Gâsa districts"
368,Kalmyk,Russian Federation,RUS,xal,Definitely endangered,Kalmuck,,153602,"Г. Ц. Пюрбеев: Калмыцкий язык. Языки мира: Монгольские языки; Тунгусо-маньчжурские языки; Японский язык; Корейский язык. Москва: Индрик, 1997.",46.2026,45.8239,"the Kalmyk Republic and the adjacent part of Astrakhan, Rostov, and Volgograd provinces and Stavropol’ Region"
1071,Lak,Russian Federation,RUS,lbe,Vulnerable,,,153373,,42.0125,47.2521,parts of the Republic of Daghestan
332,Asturian-Leonese,"Spain, Portugal","ESP, PRT","ast, ext, mwl",Definitely endangered,Bable; Mirandese (local name in Portugal); Extremaduran (dialect); Cantabrian (dialect),astur-leonés,150000,,42.7954,-5.6689,"Asturias and northwestern Castile and León, Cantabria and Extremadura, Spain; and the municipalities of Miranda do Douro and Vimioso in north-eastern Portugal"
376,Latgalian,"Latvia, Russian Federation","LVA, RUS",lav,Vulnerable,,,150000,,56.1822,27.1362,eastern Latvia and cross-border areas in the Russian Federation; a regional language not recognized by the SIL
404,Provençal,France,FRA,oci,Severely endangered,occitan provençal,provençau,150000,,43.5485,6.1083,"the departments of Alpes-Maritimes (except the eastern corner), Bouches-du-Rhône, Var, and Vaucluse, the southern parts of Alpes de Haute-Provence, and the eastern parts of Gard; the original joint ISO code [prv] for Alpine Provençal and Provençal has been retired on false grounds"
1174,Rabha,India,IND,rah,Vulnerable,Rava,,150000,,25.9284,90.9777,"Assam, Goalpara, Kamrup and Darrang districts"
1996,Tamzabit,Algeria,DZA,mzb,Vulnerable,"Tumzabt, Tamzabt, Mozabite",,150000,"Chaker, official population figures. No linguistic census available.",32.4816,3.6694,"The M'zab Valley. Seven oases: Ghardaïa,  Beni-Isguen, El-Ateuf, Mélika, Bou Noura, Berrian, Guerrara.
"
1128,Sherpa,"China, India, Nepal","CHN, IND, NPL",xsr,Vulnerable,शेर्पा,,143693,"Driem, George van. 2001. Languages of the Himalayas. Volumes 1 and 2. Hand-book of Oriental Studies. Section Two: India. Leiden/Boston/Köln: Brill.

Driem, George van. 2007. 'South Asia and the Middle East', pp. 283-347 in Christopher Moseley (ed.) Encyclopedia of the World's Endangered Languages. London/New York: Routledge.

ethnologue.com",27.739,86.839,Solukhumbu district and around Mt Everest
1154,Tangkhul,India,IND,nmf,Vulnerable,,,142000,,25.0358,94.4824,"Manipur, Ukhrul Dt.;; Nagaland, Phek Dt. Also spoken in Burma"
1826,Q'aanjob'al,Guatemala,GTM,,Vulnerable,Qanjobal,,139830, XI Censo Nacional de Población for number of speakers and language names; contributor H. Antonio García Zúñiga consulted Ethnologue for some locations,15.6019,-91.4441,"Soloma, San Juan Ixcoy, Santa Eulalia, Barilla"
1569,Badaga,India,IND,bfq,Definitely endangered,Badag; Badagu; Badugu; Baduga; Vadagu,,134514,,11.3642,76.5266,"Tamil Nadu, Nilgiri and Konda Hills"
1140,Angami,India,IND,njm,Vulnerable,,,132000,,25.7553,94.1308,between Dimapur (Assam) and Kohima (Nagaland)
1056,Laz,"Georgia, Turkey","GEO, TUR",lzz,Definitely endangered,Chan,,130000,"Г. А. Климов: Лазский язык. — Языки Российской Федерации и соседних государств: энциклопедия II. Москва: Наука, 2001.",41.2736,41.2646,"the towns of Pazar (Atina), Ardeşen, Çamlıhemşin and Fındıklı in Rize Province and Arhavi (Arkabi/Arxave), Hopa (Xopa), Borçka and Sarp (Sarpi) in Artvin Province in Turkey; Sarpi is partly in the Republic of Ajaria on the Georgian side; there are also Laz villages, founded by refugees of the 1877–78 war, in the western parts of Turkey mainly in Sakarya, Kocaeli and Bolu provinces"
1073,Tabasaran,Russian Federation,RUS,tab,Vulnerable,,,128391,,41.8081,47.9882,parts of the Republic of Daghestan
1553,Chambeali,India,IND,cdh,Definitely endangered,Chamaya; Chambiali; Chamiyali; Chambiyali; Chameali,,126589,,32.9072,76.5307,Himachal Pradesh
1076,Abkhaz,"Georgia, Russian Federation, Turkey","GEO, RUS, TUR",abk,Vulnerable,,,125000,"В. А. Чирикба: Абхазский язык. — Языки Российской Федерации и соседних государств: энциклопедия I. Москва: Наука, 1997. | Wolfgang Schulze: Abchasisch. — Lexikon der Sprachen des europäischen Ostens. Herausgegeben von Miloš Okuka unter Mitwirkung von Gerald Krenn. Wieser Enzyklopädie des europäischen Ostens 10; Klagenfurt: Wieser, 2002. 843–850.",43.133,40.8471,"Abkhazia; diaspora communities in Turkey, the Russian Federation, Georgia, the Middle East and Western Europe; includes the Ashkharawa dialect officially subsumed under Abaza in the Russian Federation"
1129,Phom,India,IND,nph,Vulnerable,,,123000,,26.7799,94.9493,"Nagaland, Tuensang Dt."
1588,Kolami,India,IND,kfb,Definitely endangered,Kulume; Kolamboli; Kolam; Kolmi; Kolamy,,121855,,20.5093,78.1787,"Maharashtra (Yavatmal, Wardha, and Nanded), Andhra Pradesh and Madhya Pradesh"
784,Navajo,United States of America,USA,nav,Vulnerable,"Navajo, Diné",,120000,"Platero, Paul. 2001. Navajo head start language study. in The Green Book of Language Revitalization, Leanne Hinton and Ken Hale, eds.
Golla et al. 2001",35.8044,-108.475,"the Navajo Nation is located in the region of northern Arizona, northwestern New Mexico, southwestern Colorado and southeastern Utah"
408,Sassarese,Italy,ITA,sdc,Definitely endangered,Sassarese Sardinian,,120000,,40.6139,8.6132,northwestern Sardinia; an outlying dialect of Corsican
655,Tamahaq (Algeria),Algeria,DZA,thv,Vulnerable,"Tahaggart, Tamachek, Touareg, Tuareg, Toureg",,120000,"Official population figures.
Chaker (INALCO websites and other publications)
Cortade, Bernus etc.",22.8369,5.5371,South west Algeria especially in around the regional centres of Tamanrasset (Kel Ahaggar) and Djanet (Kel Ajjer).
1590,Konda,India,IND,kfc,Definitely endangered,Kubi; Konda-Dora,,118597,,18.2763,82.9385,Maharashtra (Chandrapur and Nanded) and Andhra Pradesh (Adilabad)
916,Sierra Totonac,Mexico,MEX,tos,Severely endangered,"Highland Totonac, Totonaco central del sur",,118367,Contributors: Carolyn MacKay and Frank Treschel.  Their sources are the 2005 census and INALI information,20.2461,-97.6586,"Ahuacatlán, Amixtlán, Atlequizayán, Camocuautla, Caxhaucan, Coatepec, Hermenegildo Galeana, Huehuetla, Hueytlalpan, Ixtepec, Jopala, Olintla, San Felipe Tepatlán, Tepango de Rodríguez, Tuzamapan de Galeana, Zapotitlán de Méndez, Zongozotla (state of Puebla);  Coahuitlán, Coxquihui, Coyutla, Chumatlán, Mecatlán, Zozocolco de Hidalgo (state of Veracruz)"
1564,Jaunsari,India,IND,jns,Definitely endangered,Jaunsauri; Jansauri,,114733,,30.4859,78.0908,Himachal Pradesh
1167,Dimasa,India,IND,dis,Vulnerable,,,112000,,24.7368,92.9003,Karbi Anglong and North Cachar Hills districts
1179,Ladakhi,"China, India","CHN, IND","cna, lbj, tkk",Vulnerable,Ladhakhi,,105000,,34.0617,77.5909,"Jammu and Kashmir, Ladakh District"
1429,Salar,China,CHN,slr,Vulnerable,,,104503,Arienne M. Dwyer: Salar grammatical sketch (2001) http://www.mpi.nl/DOBES/projects/salar/salar.pdf,36.2752,102.4584,"Xunhua Salar Autonomous County and Hualong Hui Autonomous County of Qinghai Province, and Dongxiang Salar Jishishan Autonomous County of Linxia Hui Autonomous District of Gansu Province; an old émigré community in the Ili Kazakh Autonomous Prefecture of Sinkiang (Xinjiang)"
1136,Simi,India,IND,nsm,Vulnerable,"Sumi, Sema",,104000,,25.9777,94.5922,"Nagaland, Zunheboto, Kohima, Mokokchung and Tuensang districts"
904,Phurhepecha,Mexico,MEX,tsz,Vulnerable,"Purépecha, Tarasco, Porhé",,102988,"Census 2000
Contributor:  Claudine Chamoreau has estimated the endangerment in the different locations, but the mapping is hard to handle.",19.3111,-102.041,
342,Crimean Tatar (Crimea),Ukraine,UKR,"crh, jct",Severely endangered,крымскотатарский (ru),,100000,"С. Р. Изидинова: Крымскотатарский язык. — Языки мира: Тюркские языки. Москва: Индрик, 1997.",45.3212,34.3212,"originally spoken in the central parts of the Crimea, but most speakers were deported to Central Asia after the Second World War; many have now returned; includes Krimchak (Judeo-Crimean Tatar)"
451,Dagur (Nonni),China,CHN,dta,Definitely endangered,Daur; дагурский,,100000,"Toshiro Tsumagari: Dagur. The Mongolic languages. Edited by Juha Janhunen. London and New York: Routledge, 2003. 129–153.",47.9163,124.1235,Morin Dawa Daur Autonomous Banner in Hulun Buir League and the Nenjiang and Qiqihar regions in Inner Mongolia
366,Francoprovençal,"France, Italy, Switzerland","FRA, ITA, CHE",frp,Definitely endangered,Arpitan; Harpitan,,100000,,45.7828,6.9982,"Savoy (Savoie and Haute-Savoie), Ain (mainly in the region of Bresse), Rhône, Loire, the northern and central parts of Isère, and the southern parts of the departments of Jura and Doubs, France; formely also the northernmost parts of Ardèche and Drôme; the Aosta Valley and the Alpine valleys to the north and east of Val di Susa in Piedmont, Italy; mountain villages of Valais and Fribourg, perhaps also Vaud, Switzerland; formerly all of Suisse romande except the Canton of Jura; now most actively used in the village of Evolène in Valais; severely endangered in France and Switzerland, perhaps also in Italy"
356,Gallurese,Italy,ITA,sdn,Definitely endangered,Gallurese Sardinian,,100000,,40.8802,9.4482,northeastern Sardinia; an outlying dialect of Corsican
1754,Mapuche (Argentina),Argentina,ARG,arn,Severely endangered,"Mapuche, Araucano, Maputongo, Mapudungu",,100000,"Gordon, Raymond G., Jr. (ed.), 2005. Ethnologue: Languages of the World, Fifteenth edition. Dallas, Tex.: SIL International. Online version: http://www.ethnologue.com/Ethnologue 2005",-40.0791,-71.0156,"Provinces of Neuquen, Rio Negro, Chubut, Buenos Aires, La Pampa"
1620,Mehri,"Oman, Yemen","OMN, YEM",gdq,Definitely endangered,"Mahri, Mehriyet, Mehriyot, Mehriye",,100000,"Johnstone essentially for Mehri spoken in Oman.
Simeone-Senelle for Mehri spoken inYemen (Mehriyyet and Mehriyyot varieties)   ",16.5993,52.8057,"The language is spoken by the Mahra tribes in the south-eastern province of Mahra in Yemen, and in the Dhofar in Oman. It is the most prestigious and the best known language within the Modern  South Arabian group, because of the history of the region and of its rich literature (tales, poetry) 
  On the coast, The Mehri area extends from the Omani border to the eastern bank of Wadi Masilah in Yemen: Salalah, Jadib, Damqawt, al-Ghaydha, Nishtawn, Saqr, Qishn, Itab, Sayhut) . In the North it is spoken as far as the border of the Rub‘ al-Khali (Thamud, Sanaw, Haberut and beyond). More precise Location for Dhofar is lacking
The Mahra inhabitants in the desert steppe of Yemen and in the mountains of Dhofar in Oman are semi-nomads livstock breeders. Some of them cultivate palm-trees. Those who are owners of four-wheel-drive cars trade with other countries of the Peninsula and provide supplies for numerous shops in the coastal towns and villages. On the coast the activities are sea-oriented: fishing, fish drying and freezing. Some people are employees in public services in the main coastal villages. Before 1990 many Mahra were traders or shopkeepers in Koweit,  presently many migrated and settled in Saudi Arabia. A Mehri speaking community is settled in Tanzania and comes back regularly to Mahra. "
1891,Miskito (Nicaragua),Nicaragua,NIC,,Vulnerable,,,100000,Recent article by Constenla,12.4001,-83.7332,"Caribbean coast to Pearl Lagoon, communities of Kakabila and Raitipura"
1233,Ordos,China,CHN,"drh, khk, mvf",Definitely endangered,Urdus,,100000,"Stefan Georg: Ordos. — The Mongolic languages. Edited by Juha Janhunen. London and New York: Routledge, 2003. 193–209.",39.1641,108.1054,"the southernmost part of lnner Mongolia, south of the Yellow River and north of the Great Wall"
1944,Quechua of Northern Bolivia,Bolivia (Plurinational State of),BOL,qul,Vulnerable,,,100000,,-15.3649,-69.0518,"North of the department of La Paz, province of Apolo."
96,Suba,"Kenya, United Republic of Tanzania","KEN, TZA","sxb, ssc",Vulnerable,,,100000,Okoth Okombo,-0.9942,34.519,Kenya and Tanzania
1861,Garífuna (Honduras),Honduras,HND,cab,Vulnerable,Black Carib,,98000,Ehnologue,15.6754,-88.1476,"Masca, Cortés department; Plaplaya, Gracias a Dios"
292,Embera (Colombia),Colombia,COL,"emp, cmi, cto, sja, bdc, tdc, crf",Vulnerable,"Chocó, Epena, Sia-Pedee, Siapidara, Saija, Catío, Katío, Chamí, Baudó, Tadó, Caramanta (most are subgroups)",,95000,"Arango and Sánchez, 'Los pueblos indígenas de Colombia' (2004)
Rodríguez en González, 'Lenguas indígenas de Colombia' (2000)
Brenzinger, 'Language Diversity Endangered' (2007)
Jorge Gómez Rendón (pers. comm.)",6.1624,-76.8383,"The Emberá occupy large parts of western, southern and northern Colombia (departments of Antioquia, Bolívar, Caldas, Caquetá, Cauca, Chocó, Córdoba, Nariño, Putumayo, Quindío, Risaralda, Valle del Cauca). Eastern Panamá (Pacific side and interior). Ecuador (Carchi province). The ethnic group tends to expand and occupy new territories."
1162,Kabui,India,IND,nkf,Vulnerable,"Koboi, Kubai, Kuki-Kabui, Inpui",,95000,,24.7218,93.6584,"Manipur, Senapati, Tamenglong and Imphal districts; Nagaland, around Dimapur; Assam."
760,Shughni,"Tajikistan, Afghanistan","TJK, AFG",sgh,Vulnerable,"šughnī, šughnanī, шуғнони",,95000,"Government sources 
personal research",37.4879,71.5374,"Shughnan district, Roshkala district and Khorog city, Gorno Badakhshan Autonomous Region of Tajikistan;
Shughnan district, Badakhshan Province of Afghanistan"
397,Permyak,Russian Federation,RUS,koi,Definitely endangered,“Komi-Permyak” (calque from Russian); коми-пермяцкий,,94328,"Anu-Reet Hausenberg: Komi. — The Uralic languages. Edited by Daniel Abondolo. London & New York: Routledge, 1998. 305–326. | Paula Kokkonen: Syrjänisch. — Lexikon der Sprachen des europäischen Ostens. Herausgegeben von Miloš Okuka unter Mitwirkung von Gerald Krenn. Wieser Enzyklopädie des europäischen Ostens 10; Klagenfurt: Wieser, 2002. 709–718.",59.204,54.5361,the former Permyak Komi Autonomous District and the adjacent parts of Kirov (Vyatka) and Perm’ provinces
1825,Poqomchi',Guatemala,GTM,pob,Vulnerable,Tactic Poqomchí,,92941,XI Censo Nacional de Población for number of speakers and language names; contributor H. Antonio García Zúñiga consulted Ethnologue for several locations,15.3757,-90.4288,"Purulhá, Santa Cruz Verapaz, San Cristobal Verapaz, Tactic, Tamahú, Tucurú"
1135,Yimchungru,India,IND,yim,Vulnerable,,,92000,,25.9629,94.9713,"Nagaland, Tuensang Dt.  "
669,Nogay (Caucasus),Russian Federation,RUS,nog,Definitely endangered,,,90020,"Н. А. Баскаков: Ногайский язык. — Языки мира: Тюркские языки. Москва: Индрик, 1997. 328–335.",43.8028,46.2744,"parts of the Karachay-Cherkes Republic, Nogay, Tarumovka, Kizlyar and Babayurt counties in the Republic of Daghestan, Shelkovskaya County in the Republic of Chechenia, and Neftekumsk, Mineral’nyye Vody and Kochubeyevskoye counties in Stavropol’ Region"
700,Heiban,Sudan,SDN,hbn,Vulnerable,,,90000," Editor's field visit
Population statistics of International assessments and humanitarian missions",10.8575,30.2371,"Heiban, Abul (Obul), and nearby hills. In Heiban town on the Abri-Talodi road. Alternate names: Ebang, Abul."
1930,Quichua (Cañar and Azuay),Ecuador,ECU,"qxr, qug, qvi, qvj, qvo, qvz, qxl",Severely endangered,"Kichwa, Runashimi, Runa simi (Quichua Cañar Highland, Ethnologue), Quechua",,90000,"- www.codenpe.gov.ec/htm.htm
- www.ethnologue.com
- Haboud, Marleen. 2007-08. Proyecto Oralidad y Modernidad. Migración y pérdida de la lengua en Juncal, Cañar (internal report) (unpublished)",-2.6577,-78.8378,"Southern Highlands, Provinces of Cañar and Azuay (387 communities)"
932,Mezquital Otomí,Mexico,MEX,ote,Definitely endangered,"hñähñú, ñänhü, ñandú, ñohño, ñanhmu",,88789,,20.4831,-99.217,"Ajacuba, Ixmiquilpan, San Bartolo Tutotepec, Tepeji del Rio de Ocampo, Zempoala (state of Hidalgo)"
940,Eastern Mazahua,Mexico,MEX,,Definitely endangered,jnatrjo,,88001,"Census 2000, information provided by INALI and some field work by Lastra",19.7129,-99.9515,"Donato Guerra, Ixtlahuaca, Jocotitlán, San Felipe del Progreso, Temascalcingo (municipalities in the state of Mexico)"
1599,Burushaski,Pakistan,PAK,bsk,Vulnerable,"Brushaski, Burushaki, Burucaki, Burushki, Burucaski, Biltum, Khajuna, Kunjut",,87000,"Backstrom, Peter C. and Carla F. Radloff. 1992. Languages of northern areas. Sociolinguistic Survey of Northern Pakistan, 2. Islamabad: National Institute of Pakistan Studies, Quaid-i-Azam University and Summer Institute of Linguistics. xxiii, 417 p. available at
http://www.sil.org/sociolx/pubs/32840_SSNP02.pdf

Dr. George van Driem in Encyclopedia of World's Endangered Languages, ed by Christopher Moseley. 2007",35.909,74.2153,"Hunza-Nagar area and Yasin area in Gilgit District, Northern Areas of Pakistan"
928,Central Otomí,Mexico,MEX,,Definitely endangered,"State of Mexico Otomí, hñähñú, ñöthó, ñható, hñothó, ñohño",,84593,"Census 2000, Lastra's research",19.4661,-99.5944,"Municipalities of Acambay, Chapa de Mota, Huixquilucan, Temoaya in the state of Mexico"
1141,Chokri,India,IND,nri,Vulnerable,,,84000,,25.8691,94.7131,Phek Dt.
1133,Sangtam,India,IND,nsa,Vulnerable,,,84000,,26.6032,94.9603,"Nagaland, Tuensang Dt."
1791,Ixil (Guatemala),Guatemala,GTM,,Vulnerable,,,83574,XI Censo Nacional de Población for number of speakers and names of languages; Contributor H. Antonio García Zúñiga consulted Ethnologue for some locations,15.4849,-91.0358,"Chajul, San Juan Cotzal, Nebaj"
1777,Achi',Guatemala,GTM,acr,Vulnerable,,,82640,XI Censo Nacional de Población for number of speakers and names of languages; Contributor H. Antonio García Zúñiga consulted Ethnologue for some locations.,15.0845,-90.4888,"West of Rabinal, Baja Verapaz dept."
1686,Yem,Ethiopia,ETH,jnj,Vulnerable,"Yemsa, ""Janjero""",,81613,"Census, Aklilu Yilma",7.6347,37.3205,
1144,Mao,India,IND,nbi,Vulnerable,,,81000,,25.5027,94.2681,"Manipur, Senapati Dt; Nagaland, Kohima Dt."
1347,Arbëresh,Italy,ITA,aae,Definitely endangered,Arbëreshë Albanian,arbrisht,80000,"Walter Breu: Italoalbanisch. — Lexikon der Sprachen des europäischen Ostens. Herausgegeben von Miloš Okuka unter Mitwirkung von Gerald Krenn. Wieser Enzyklopädie des europäischen Ostens 10; Klagenfurt: Wieser, 2002. 73–75.",40.9321,14.8645,"(i) Adriatic zone: Montecilfone, Campomarino, Portocannone and Ururi in Molise as well as Chieuti und Casalvecchio di Puglia in Apulia; (ii) San Marzano in Apulia; (iii) Greci in Campania; (iv) northern Basilicata: Barile, Ginestra und Maschito; (v) North Calabrian zone: ca. 30 settlements in northern Calabria (Plataci, Civita, Frascineto, San Demetrio Corone, Lungro, Acquaformosa etc.) as well as San Costantino Albanese and San Paolo Lucano in southern Basilicata; (vi) settlements in southern Calabria, e.g. San Nicola dell’Alto and Vena di Maida; (vii) Sicilian zone: Piana degli Albanesi and two nearby villages near Palermo; (viii) formely also Villabadessa in Abruzzi; an outlying dialect of Albanian"
1765,Lari,Iran (Islamic Republic of),IRN,"lrl, fay",Definitely endangered,"Larestani, Achomi",,80000,,27.8585,54.8547,"Lar district, South Province, Iran"
641,Páez,Colombia,COL,pbb,Definitely endangered,Nasa (people). Nasa Yuwe (language).,,80000,"CRIC - Base de Datos Sociolingüística - Análisis preliminar - 2008
Rojas, Tulio La lengua Paez: Una vision de su gramatica (1998)
Arango and Sánchez, 'Los pueblos indígenas de Colombia' (2004)
González and Rodríguez, 'Lenguas indígenas de Colombia' (2000)
Jung, 'Gramática del páez o nasa yuwe' (2008)",2.8237,-76.3117,"In the Tierradentro mountain region of the departments of Cauca and Huila. There are also settlements in Caquetá, Meta, Putumayo, Tolima and Valle."
2303,Quechua of Santiago del Estero,Argentina,ARG,qus,Definitely endangered,Quichua. Cuzco.,,80000,,-26.7848,-63.6767,
1058,Svan,Georgia,GEO,sva,Definitely endangered,,,80000,"А. Л. Ониани: Сванский язык. — Языки Российской Федерации и соседних государств: энциклопедия III. Москва: Наука, 2005.",43.0207,42.3193,"area known as Svanetia, mainly within Mestiya and Lentekhi counties in Georgia"
2236,Tai Daeng,"Lao People's Democratic Republic, Viet Nam","LAO, VNM",tyr,Vulnerable,Red Thai,,80000,,19.8833,104.6166,
2163,Taznatit,Algeria,DZA,grr,Severely endangered,"Tamazight du Gourara, Tamazight du Touat",,80000,"Official Population figures, Bellil, Guillermou",29.3413,0.3955,"Several oasis around Timimoune, Adrar, Tamentit"
2179,Razihi,Yemen,YEM,,Definitely endangered,"Samrit Razih, Razihit, رازحي",,75000,"Personal fieldwork conducted in Razih in 1979 and in 2005-2006  in London.  Watson, Stalls, al-Razihi, Weir. The Language of Jabal RāziH:  
Arabic or something else?  Arabian Studies Seminar, 2006.
P. Behnstedt.  Die Dialekte der Gegend von Sa‘ dah (Nord-Jemen), 1987.


",16.8834,43.2655,Town of Al-Nadhir on Jabal Razih and surrounding area
1379,Wakhi,"China, Pakistan, Tajikistan, Afghanistan","CHN, PAK, TJK, AFG",wbl,Definitely endangered,вахони,,75000,Elnazarov. A. Personal research,37.1603,74.9047,"Ishkashim district of GBAO, Tajikistan; Northern Pakistan; Badakhshan Province of Afghanistan and Tashkurghan district of Xinjiang Province of China.  "
1568,Bishnupriya Manipuri Creole,"Bangladesh, India","BGD, IND",bpy,Vulnerable,Bishnupuriya; Bisna Puriya; Bishnupria Manipuri,,72899,,24.297,92.4499,"Assam (Cachar, Hailakandi, Karimganj), Manipur, Tripura"
1713,Acheron,Sudan,SDN,acz,Severely endangered,Game,,70000,"UN interagency assessment missions, vaccination campaigns
Editor's field visit",10.809,30.2453,"Northern Sudan, Kordofan Province, southern Nuba Hills. Acheron "
702,Maori,New Zealand,NZL,mri,Vulnerable,,,70000,"Grimes (2000), Ethnologue : Languages of the World, 16th edition.",-38.4105,177.3632,Countrywide
2237,Tai Neua,Lao People's Democratic Republic,LAO,tdd,Vulnerable,Samneua Tai,,70000,,20.5166,104.3166,
1567,Bhadravahi,"India, Pakistan","IND, PAK",bhd,Definitely endangered,Bhadrāvāhī; Baderwali; Badrohi; Bhaderbhai Jamu; Bhaderwali Pahari; Bhadrava; Bhadri; Bahi,,66918,,33.5413,76.333,"Jammu and Kashmir, Bhadrawah region"
1562,Kinnauri,India,IND,"kns, kfk, cif, tpq",Definitely endangered,Harijan boli; Ores boli; Sonar boli; Chamang boli,,65097,,31.541,78.3764,"Himachal Pradesh, but also in Jammu and Kashmir, Uttaranchal and Haryana"
1330,Gallo-Sicilian,Italy,ITA,lmo,Definitely endangered,,,65000,,38.0167,14.5994,"Nicosia, Sperlinga, Piazza Armerina, Valguarnera Caropepe and Aidone in the province of Enna, and San Fratello, Acquedolci, San Piero Patti, Montalbano Elicona, Novara di Sicilia and Fondachelli-Fantina in the province of Messina; an outlying dialect of Lombard not listed separately by the SIL; other dialects were formerly also spoken in southern Italy outside Siciy, especially in Lucania (Basilicata)"
1594,Kurux (Bangladesh),Bangladesh,BGD,kru,Vulnerable,Kurukh; Oraon,,65000,http://www.newagebd.com/2008/apr/29/met.html,25.8196,88.9672,
1831,Tz'utujil,Guatemala,GTM,"tzj, tzt",Definitely endangered,Tzutujil,,63237, XI Censo Nacional de Población for number of speakers and language names; contributor H. Antonio García Zúñiga consulted Ethnologue for some locations,14.6394,-91.2301,"San Lucas Tolimán, San Pablo la Laguna, San Juan la Laguna, San Pedro la Laguna, Santiago Atitlan, Chicacao"
2350,Chamorro,Guam (U.S.A.),GUM,cha,Vulnerable,,,62500,Grimes 2000,13.4323,144.7338,Guam and Northern Marianas
741,Ashaninka (Peru),Peru,PER,"cjo, cni, cpb, cpc, cpu, cpy, prq",Vulnerable,"Asheninka, campa",,62468,www.inei.gob.pe,-10.6929,-74.3444,"Deptos.  de  Junín,  Ucayali, Loreto, Pasco y Cusco."
1131,Chang,India,IND,nbc,Vulnerable,,,62000,,26.2934,94.9493,Tuensang Dt.
1897,Kuna (Panama),Panama,PAN,"kvn, cuk",Vulnerable,"Cuna, Tule, Dule",,61703,"Census 2000, article by Constenla",9.5983,-79.6334,"Paya and Picuro localities of southeastern Panama; San Blas Islands, eastern Atlantic coast"
1554,Churahi,India,IND,cdj,Definitely endangered,Chaurahi; Churahi Pahari; Churai Pahari,,61199,,33.1835,76.5747,Himachal Pradesh
1155,Nruanghmei,India,IND,nbu,Vulnerable,"Maruongamai, Rongmei, Rongmai",,61000,,24.9661,93.5375,"Manipur, Tamenglong Dt.;  Nagaland, Kohima Dt.; Assam, Cachar Dt."
1139,Rengma,India,IND,"nnl, nre",Vulnerable,"Rengma is often divided into 'northern' and 'southern,' and even 'eastern' varieties.  I have opted for 'Rengma' to cover them all for convenience and clarity, and until further field data is collected",,61000,,25.958,94.2462,"Nagaland, Kohima Dt."
1027,Faroese,Faroe Islands,FRO,fao,Vulnerable,,,60000,,62.0112,-6.7785,the Faroe Islands
2439,Northern Tujia,China,CHN,tji,Severely endangered,Biji,,60000,Bradley 2007,28.828,109.5904,
2480,Torwali,Pakistan,PAK,trw,Definitely endangered,Torwālī,,60000,"Dr. George van Driem in Encyclopaedia of World Endangered Languages, ed. by Christopher Moseley. 2007",35.5833,72.5,"both sides of Swat river, Swat Kohistan"
1787,Chuj (Guatemala),Guatemala,GTM,"cnm, cac",Vulnerable,,,59048,XI Censo Nacional de Población for number of speakers and names of languages; contributor H. Antonio García Zúñiga consulted Ethnologue for some locations,15.8259,-91.4783,"San Mateo Ixtatán, San Sebastián Coatán, part of Nentón"
1186,Kachari,India,IND,xac,Definitely endangered,Cachari,,59000,,25.2844,93.2189,"Assam, Sonitpur and Darrang districts"
411,Scottish Gaelic,United Kingdom of Great Britain and Northern Ireland,GBR,gla,Definitely endangered,,,58552,"William Gillies: Scottish Gaelic. — The Celtic languages. Edited by Martin J. Ball with James Fife. London and New York: Routledge, 1993. 145–227.",58.1011,-6.7675,"the Western Isles and parts of the Highlands, Scotland; émigré communities in Nova Scotia, Canada"
1504,Sierra de Puebla Náhuatl,Mexico,MEX,,Definitely endangered,Mexicano,,57189,"Census 2000, information provided by INALI for percentages of child speakers; Lastra (1986)",19.6223,-97.8149,"Municipalities of Chilchotla, Chichiquila, Ixtacamaxtitlán, Ahuacatlán, Aquixtla, Chignahuapan, Tepetzintla, Zacatlán and others in the state of Puebla"
643,Limonese Creole,Costa Rica,CRI,,Definitely endangered,Limón Creole,mekaytelyuw,55000,"Anita Herzteld: Mekaytelyu: la lengua criiolla (de Limón, Costa Rica), San José, Costa Rica: Editorial Universidad de Costa Rica, 2002, p.457
Norval Smith: An annotated List of Creoles, Pidgins and Mixed Languages, in Pidgins and Creoles: an Introduction, ed. Jacques Arends, Pieter Muysken and Normal Smith, Amsterdam, John Benjamins 1995, p.341
Personal communication",9.9916,-83.0316,Mostly in the Province of Limón
370,Kashubian,Poland,POL,csb,Severely endangered,,,53000,"Władysław Lubaś: Kaschubisch. — Lexikon der Sprachen des europäischen Ostens. Herausgegeben von Miloš Okuka unter Mitwirkung von Gerald Krenn. Wieser Enzyklopädie des europäischen Ostens 10; Klagenfurt: Wieser, 2002. 265–273.",54.2267,18.1713,"an area northwest, west and southwest of Gdansk, mainly in Wejherowo, Lebork, Bytów (Betowo), Pock (Puck), Kartuzy, Koscierzyna, and Chojnice districts"
481,Khakas,Russian Federation,RUS,kjh,Definitely endangered,"dialects: Kacha, Sagay, Kyzyl, Koibal, Beltir, Shor",,52217,"Г. И. Донидзе: Хакасский язык. — Языки мира: Тюркские языки. Москва: Индрик, 1997. 459–470.",53.7746,90.3735,the Republic of Khakasia; also Uzhur and Sharypovo counties in Krasnoyarsk Region and adjacent parts of the Republic of Tuva
1587,Parji,India,IND,pci,Critically endangered,Duruwa; Dhurwa; Durva; Dhruva; Parjhi; Paraja; Thakara; Tagara; Tugara,,51216,,18.5629,82.8039,Madhya Pradesh
1352,Arvanitika,Greece,GRC,aat,Severely endangered,Arvanite Albanian,arbërisht,50000,"Bardhyl Demiraj: Arvanitisch. — Lexikon der Sprachen des europäischen Ostens. Herausgegeben von Miloš Okuka unter Mitwirkung von Gerald Krenn. Wieser Enzyklopädie des europäischen Ostens 10; Klagenfurt: Wieser, 2002. 71–72. Hans-Jürgen Sasse: Arvanitika: Die arvanitischen Sprachreste in Griechenland. Bd. 1. Wiesbaden: Harrassowitz, 1991.",38.1863,23.6096,"rural areas in Attica, Boeotia (Voiotía), southern Euboea (Évvoia), northern Andros (Ándros), Corinthia, Argolis and a few smaller sections of Peloponnese and central Greece; an outlying dialect of (Tosk) Albanian"
507,Buryat (Cis-Baikal),Russian Federation,RUS,"bxm, bxr, bxu",Severely endangered,,,50000,"Elena Skribnik: Buryat. — The Mongolic languages. Edited by Juha Janhunen. London and New York: Routledge, 2003. 102–128.",52.7961,104.8809,Ust’-Orda (Ust’-Ordynskiy) Buryat Autonomous District and elsewhere in Irkutsk Province
458,Buryat (Manchuria),"China, Mongolia","CHN, MNG","bxm, bxr, bxu",Definitely endangered,,,50000,"Elena Skribnik: Buryat. — The Mongolic languages. Edited by Juha Janhunen. London and New York: Routledge, 2003. 102–128.",49.8096,119.7509,"the Barga steppe region in Hulun Buir League in Inner Mongolia, China; north-eastern border regions in Mongolia"
2261,Cuona Menba,"Bhutan, China, India","BTN, CHN, IND",twm,Vulnerable,"Moinba, Central Monpa (Walong, India); Tawang Monpa",,50000,Bradley 2007,26.8279,95.3623,
2229,Eastern Cham,Viet Nam,VNM,cjm,Definitely endangered,,,50000,,10.7833,108.0833,
1232,Hmar,India,IND,hmr,Vulnerable,,,50000,,24.577,93.3178,"Assam, North Cachar and Cachar districts; Manipur, Churachandpur Dt.; Mizoram, Aizawl, Cachar, North Cachar districts; Tripura."
1422,Huzhu Monguor,China,CHN,mjg,Severely endangered,Mongghul; Mongghuor,,50000,"Stefan Georg: Mongghul. — The Mongolic languages. Edited by Juha Janhunen. London and New York: Routledge, 2003. 286–306.",36.7608,102.4255,"Huzhu Tu Autonomous County and adjacent parts of Datong Hui and Tu Autonomous County, Qinghai, and adjacent parts of Tianzhu Tibetan Autonomous County, Gansu"
1159,Paite,India,IND,"pck, smt",Vulnerable,,,50000,,24.1968,93.3563,"Assam, Cachar Dt.; Manipur, Churachandpur Dt.; Mizoram, Aizawl Dt. "
1929,Quichua (Imbabura),Ecuador,ECU,"qxr, qug, qvi, qvj, qvo, qvz, qxl",Definitely endangered,"Kichwa, Runashimi, Runa simi, Quichua del norte, Otavalo Quichua (Ethnologue), , Quechua",,50000,"- www.codenpe.gov.ec/htm.htm
- www.ethnologue.com
- Haboud, Marleen. 2007. Proyecto Oralidad y Modernidad. Vitalidad del Kichwa en Otavalo y Peguche (internal report) (unpublished)",0.1757,-78.2006,"Northern Highlands, Imbabura Province: towns of Cotacachi, Atuntaqui, Ibarra and Otavalo (157 communities)"
1949,Soqotri,Yemen,YEM,sqt,Severely endangered,"sk'ot'ri, sk'ot'riyyet, suqutri",,50000,"Personal investigations during numerous fieldworks on the island of Soqotra between 1985 and 2004. Data crossed with those in Naumkin (1993) ""Island of the Phoenix. An ethnographic Study of the People of Socotra"" (for Abd-al-Kuri and Samha).
 Simeone-Senelle - (1997) Proceeedings of the 16th ICL. Pergamon, Oxford, Paper No.0449. 
Simeone-Senelle  (2004) Soqotri dialectology, and the evaluation of the language endangerment . on line  <http://halshs.archives-ouvertes.fr/halshs-00338711/fr/.>
",12.5331,53.767,"Spoken only in Yemen, on the islands of Soqotra, Abd-al-Kuri and  Samha (Gulf of Aden). Belonging to the Modern South Arabian group but very distinct from the Mehri sub-group or from Jibbali.   
Some fishermen,  Soqotri native speakers, from Abd-al-Kuri are settled for many months in the year on the mainland coast of Hadramawt, others in the Mahra. A  Soqotry community (speaking Soqotri) is living in the emirate of 'Ajman. Capital of Soqotra is Hadibo (Tamarida on old maps). 
Four groups of dialects are distinguished among the surveyed dialects (from 1985 until 2004) : northern coastal villages :such as  Qadhub, Hadibo, Hawlef), the southern coast (Noged area), , the beduin varieties spoken in the Hagher Mountains,  far west dialects in the area of Qalansiya. The dialect of 'Abd-al-Kuri is apart whereas that of Samha is close to the western dialects of Soqotra (Naumkin 1988, 343-344). Soqotri have a rich oral literature (essentially poetry)."
462,Southern Altay,Russian Federation,RUS,alt,Definitely endangered,"dialects: Altay, Teleut (Telengut), Telengit; алтайский диалект, телеутский диалект, теленгитский диалект",,50000,"Н. А. Баскаков: Алтайский язык. — Языки мира: Тюркские языки. Москва: Индрик, 1997. 179–187.",51.069,86.5942,"the Republic of Altay in the Russian Federation, except that Teleut is mainly spoken in the Bachat region in Belovo, Gur’yevsk and Novokuznetsk counties in the western part of Kemerovo Province and the Chumysh region in Tselinnoye County in the eastern part of Altay Region in the Russian Federation as well as, at least until recently, in Altai District of northern Sinkiang, China"
1475,Transylvanian Saxon,Romania,ROU,,Severely endangered,,,50000,"Elmar Seebold: Deutsch. — Lexikon der Sprachen des europäischen Ostens. Herausgegeben von Miloš Okuka unter Mitwirkung von Gerald Krenn. Wieser Enzyklopädie des europäischen Ostens 10; Klagenfurt: Wieser, 2002. 167–170.",46.214,24.2413,Bistriţa (Bistritz) and Sibiu (Hermannstadt) regions in Transylvania; many now settled in Germany; an outlying dialect of Moselle Franconian (Luxemburgian) incorrectly subsumed under “Standard German” [deu] by the SIL
1986,Turoyo,"Syrian Arab Republic, Turkey","SYR, TUR",tru,Severely endangered,Ṭuroyo,,50000,,37.405,41.3745,"Traditionally spoken around the town of Midiad, Turkey; important emigration in Sweden and Germany"
422,Võro-Seto,"Estonia, Russian Federation","EST, RUS",est,Definitely endangered,,,50000,,57.8096,27.29,the southeastern corner of Estonia; Pechory County in the west of Pskov Province in the Russian Federation; a regional language not recognized by the SIL
687,West Greenlandic,Greenland (Kingdom of Denmark),GRL,kal,Vulnerable,Kalaallisut,,50000,,64.1681,-51.7236,the west coast of Greenland
1494,Western Armenian (Turkey),Turkey,TUR,hye,Definitely endangered,,արևմտահայ,50000,,41.0213,28.9324,Istanbul; the village of Vakıflı Köyü in the Samandağ district of Hatay Province
122,Zaramo,United Republic of Tanzania,TZA,zaj,Definitely endangered,,,50000,Herman Batibo,-6.922,39.2409,
2180,Zenatiya,Algeria,DZA,,Critically endangered,"Tamazight, taqbaylit",,50000,"Informal sociolinguistic investigations.
Local sources (though of limited reliability)",35.5702,1.8099,The Ouarsenis region including the the Tissemsilt Province (Wilaya)
915,Papantla Totonac,Mexico,MEX,top,Definitely endangered,"Lowland Totonac, Totonaco de la costa",,49748,Contributors: Carolyn MacKay and Frank Treschel.  Sources: 2005 Census and information given by INALI,20.4477,-97.32,"Cazones, Coatzintla, Espinal, Papantla, Tecolutla, Tihuatlán in the state of Veracruz_"
1108,Wancho,India,IND,nnp,Vulnerable,,,49000,,26.9759,95.4656,"Arunachal Pradesh, Changlang Dt."
1213,Bhumji,India,IND,bij,Vulnerable,,,47000,,21.8003,86.8139,"scattered over Bihar, Orissa, Jharkhand and Chattisgargh"
2241,Cosung (China),China,CHN,lkc,Definitely endangered,"Kucong, Lahlu",,47000,Bradley 2007,22.6833,102.6666,
2240,Cosung (Viet Nam),Viet Nam,VNM,lkc,Definitely endangered,"Kucong, Lahlu",,47000,,22.6166,102.75,
2249,Baheng (China),China,CHN,pha,Vulnerable,"Pa Hng, Pa Then",,45000,Bradley 2007,26.19,110.24,
60,Lumun,Sudan,SDN,lmd,Definitely endangered,Lomon,,45000,"Ethnologue
Filed mission 1999, missions 2002",10.8387,30.0338,"Talodi, Moro Hills; villages Toromathan, To'ri, and Canya'ru. "
1931,Quichua (Loja),Ecuador,ECU,"qxr, qug, qvi, qvj, qvo, qvz, qxl",Severely endangered,"Kichwa, Runashimi, (Quichua Loja Highland, Ethnologue), Quechua",,45000,"- www.codenpe.gov.ec/htm.htm
- www.ethnologue.com
- King, Kendall and Marleen Haboud. Fieldwork 2006 in Saraguro communities and with Saraguros living in Quito
- King, Kendall and Marleen Haboud. International migration and Quichua language shift in the Ecuadorian Andes. In, Mc Carthy, Teresa. 2008. Ethnography and Language Policy. Chapter 6.  Routledge (forthcoming)
- ",-3.6236,-79.2388,"Southern Ecuadorian Highlands, Province of Loja"
1025,Chamling,Nepal,NPL,rab,Definitely endangered,चाम्लिङ; Dsamling; Camling,,44093,"Driem, George van. 2001. Languages of the Himalayas. Volumes 1 and 2. Hand-book of Oriental Studies. Section Two: India. Leiden/Boston/Köln: Brill.

Driem, George van. 2007. 'South Asia and the Middle East', pp. 283-347 in Christopher Moseley (ed.) Encyclopedia of the World's Endangered Languages. London/New York: Routledge.",27.0499,86.7329,Khoṭāṅ and Udaypur districts. South of the Dūdhkosī and on both banks of the Sunkosī river.
362,Irish,"Ireland, United Kingdom of Great Britain and Northern Ireland","IRL, GBR",gle,Definitely endangered,Irish Gaelic,,44000,"Gearóid Mac Eoin: Irish. — The Celtic languages. Edited by Martin J. Ball with James Fife. London and New York: Routledge, 1993. 101–144.",53.7876,-9.1845,"four principal areas in the west, two in Donegal County, one each in Galway and Kerry counties, plus eight small pockets, also in Mayo, Cork, and Waterford counties; formerly also in Northern Ireland"
1329,Reshe,Nigeria,NGA,res,Vulnerable,,,44000,"Roger Blench, Ethnologue",10.8791,4.6115,
927,Sierra Otomí,Mexico,MEX,otm,Vulnerable,"Otomí del este, Otomí oriental, yuhú, ñuju,ñojo",,43468,"Census 2000, INALI data, Echegoyen and Voigtlander research",20.1021,-97.622,"Huehuetla, Tenango de Doria (state of Hidalgo); Pahuatlán (state of Puebla); Ixhuatlán de Madero, Texcatepec (state of Veracruz"
134,Phuthi,Lesotho,LSO,ssw,Definitely endangered,,,43000,Ethnologue,-29.3791,28.2838,
704,Rarotongan,Cook Islands,COK,rar,Vulnerable,,,43000,Grimes 2000,-21.2343,-159.7837,"16800 in Cook Islands, remainder mainly in New Zealand"
1804,Khalaj,Iran (Islamic Republic of),IRN,klj,Vulnerable,Turkic,,42100,,34.3751,50.3063,"Northeast of Arak in Central Province, Iran"
1670,Dungan,"Kazakhstan, Kyrgyzstan","KAZ, KGZ",dng,Definitely endangered,"Dzhunyan, Tungan, Huizu, Zwn'jan, Kwuizwu",,41000,,42.4518,78.4643,"Prschewalsk and Osh cities, Kyrgyzstan; Shaanhi dialect of Dungan is spoken is few villages in Kazakhstan."
1143,Kheza,India,IND,nkh,Vulnerable,"Kezami, Khezhama, Khezha",,41000,,25.6811,94.367,Kohima and Phek districts
1304,Jola-Kassa,Senegal,SEN,csk,Vulnerable,,,40850,"Ethnologue, Adjaratou Sall, Tucker Childs",13.1089,-15.8999,
1447,Satār,Nepal,NPL,sat,Vulnerable,सतार; Santali; Santhali; हारी; Hārī,,40260,"Driem, George van. 2001. Languages of the Himalayas. Volumes 1 and 2. Hand-book of Oriental Studies. Section Two: India. Leiden/Boston/Köln: Brill.

Driem, George van. 2007. 'South Asia and the Middle East', pp. 283-347 in Christopher Moseley (ed.) Encyclopedia of the World's Endangered Languages. London/New York: Routledge.

ethnologue.com",26.5541,87.918,Moraṅ and Jhāpā districts
1927,Guaraní Boliviano,"Argentina, Bolivia (Plurinational State of)","ARG, BOL","gnw, gui",Vulnerable,Chiriguano. Izoceño. Ava.,,40000,,-20.1694,-63.8525,
1208,Gutob,India,IND,gbj,Vulnerable,"Sodia, Gadaba, Gadba",,40000,,18.7086,83.5839,"Andhra Pradesh, Vishakhapatnam District; Orissa, Koraput District."
1247,Kheng,Bhutan,BTN,xkf,Vulnerable,Khen; Keng; Ken,,40000,"Driem, George van. 1991. Report on the First Linguistic Survey of Bhutan. Thimphu: Royal Government of Bhutan.

Driem, George van. 2001. Languages of the Himalayas. Volumes 1 and 2. Hand-book of Oriental Studies. Section Two: India. Leiden/Boston/Köln: Brill.

Driem, George van. 2007. 'South Asia and the Middle East', pp. 283-347 in Christopher Moseley (ed.) Encyclopedia of the World's Endangered Languages. London/New York: Routledge.

ethnologue.com",27.0786,91.0272,"Kheng district, also known as Zh’ämgang, south of Bumthang"
70,Laro,Sudan,SDN,lro,Definitely endangered,,,40000,Ethnologue,10.7685,29.902,
986,Minyong,India,IND,adi,Vulnerable,Adi,,40000,,28.2632,95.0537,"Arunachal Pradesh, East Siang Dt., east of Siyom River and north of Pasighat."
1137,Mru,Myanmar,MMR,mro,Severely endangered,Murung; Mrung; Maru; Niopreng,,40000,"Driem, George van. 2001. Languages of the Himalayas. Volumes 1 and 2. Hand-book of Oriental Studies. Section Two: India. Leiden/Boston/Köln: Brill.

Driem, George van. 2007. 'South Asia and the Middle East', pp. 283-347 in Christopher Moseley (ed.) Encyclopedia of the World's Endangered Languages. London/New York: Routledge.

ethnologue.com",21.7748,92.2741,Chittagong hills
149,Patani Malay,Thailand,THA,,Vulnerable,"Jawi, Yawi",,40000,,6.6482,100.0387,
998,"Quechua of Cajatambo, Pasco and northern Junín",Peru,PER,"qvn, qvr, qva, qxa, qxt, qxh, qvl",Severely endangered,"Quechua, Nunashimi. Yaru.",,40000,,-10.6147,-76.506,"Zona central del Perú, departamento de Junín (provincias de Junín y Tarma y Yauli), departamento de Pasco (provincias de Daniel Carrión y Pasco); parte de  Lima (Cajatambo, Oyón); parte de Huánuco (Ambo, Panao)."
1275,Quichua (Napo),Ecuador,ECU,"qxr, qug, qvi, qvj, qvo, qvz, qxl",Definitely endangered,"Kichwa, Runa Shimi, Runa Simi, Quichua Napo lowland (Ethnologue), Quechua",,40000,"- Ethnologue, 2000
- www.codenpe.org
- www.google earth.com, 2008",-0.6371,-77.1459,"Eastern jungle along the Napo, Aguarico, and Putumayo rivers. The former Province of Napo, main location for the Quichua Napo dialect, was divided into three provinces: Napo whose capital is Tena (0:58'47.40""S; 77:48'42.39""W); Sucumbíos whose capital is Nueva Loja (0:06'00.05""N; 76:52'00.59""W), and Orellana whose capital is Coca (0:27'50.66""S; 76:59'01.51""W)"
1104,Tangsa,India,IND,nst,Vulnerable,Tase,,40000,,27.4059,96.427,"Arunachal Pradesh, Changlang and Tirap districts.  Also spoken in Burma"
2210,Tetserret,Niger,NER,,Severely endangered,"
",,40000,"Abdoulmohamine Khamed Attayoub 
Saskia Walentowitz and A.K. Attayoub",15.4907,6.2072,Spoken around Abalak (near Tahoua)
734,Awajun,Peru,PER,agr,Vulnerable,Aguaruna,,39000,"S.E. Overall (2007), 'A Grammar of Aguaruna' (diss. La Trobe, Melbourne)",-4.3464,-77.8271,"Depto. de  Amazonas, Prov. de  Condorcanqui. También en el Depto. de  Loreto, provincia de  Daten. El centro del territorio está en la  ciudad  de  Nieva y sus alrededores."
1134,Khiamngan,India,IND,nky,Vulnerable,"Khiamnuungan, Khiemngan",,38000,,26.0518,95.1031,"Nagaland, Tuensang District. "
1717,Ngile,Sudan,SDN,jle,Severely endangered,"Masakin, Taloka, Darra",,38000,Ethnologue,10.7901,29.8635,
2235,Phunoi,Lao People's Democratic Republic,LAO,pho,Vulnerable,Sinsali,,37311,,21.6833,102.1,
905,Lower Mixe,Mexico,MEX,,Vulnerable,Camotlán,,37000,"Contributor: Leopoldo Valiñas, Census 2005, information provided by INALI",16.9616,-95.093,"Municipalities of Camotlán, Mazatlán, San Juan Guichicovi, Santo Domingo Petapa, state of Oaxaaca"
1151,Maram,India,IND,nma,Vulnerable,,,37000,,25.185,93.9715,"Manipur, Senapati and Imphal districts"
427,Western Mari,Russian Federation,RUS,mrj,Severely endangered,Hill Mari,,36822,"Eeva Kangasmaa-Minn: Mari. — The Uralic languages. Edited by Daniel Abondolo. London & New York: Routledge, 1998. 219–248. | Sirkka Saarinen: Tscheremissisch. — Lexikon der Sprachen des europäischen Ostens. Herausgegeben von Miloš Okuka unter Mitwirkung von Gerald Krenn. Wieser Enzyklopädie des europäischen Ostens 10; Klagenfurt: Wieser, 2002. 719–733.",56.3317,46.5545,westernmost parts of the Republic of Mariy-El and adjacent parts of Kirov (Vyatka) and Nizhniy Novgorod provinces
1082,Chepang,Nepal,NPL,"cdm, byh",Vulnerable,चेपाङ; Bhujeli (dialect); Bujhyal,,36807,"Driem, George van. 2001. Languages of the Himalayas. Volumes 1 and 2. Hand-book of Oriental Studies. Section Two: India. Leiden/Boston/Köln: Brill.

Driem, George van. 2007. 'South Asia and the Middle East', pp. 283-347 in Christopher Moseley (ed.) Encyclopedia of the World's Endangered Languages. London/New York: Routledge.

ethnologue.com",27.7552,84.8144,"Makvānpur, Citvan and Dhādiṅ districts."
1356,Chontal Tabasco,Mexico,MEX,chf,Severely endangered,yoko t'an,,36514,"Census 2000, information provided by INALI
Complementary information provided by collaborator H. Antonio García Zúñiga",17.7607,-92.5936," Municipalities of Jalpa de Méndez, Nacajuca, Macuspana, Centla, state of Tabasco"
2414,Muji,China,CHN,"ymx, ymq, ymc, ymi, ymz",Definitely endangered,,,36500,Bradley 2007,23.6,102.7333,
1778,Akatek (Guatemala),Guatemala,GTM,knj,Vulnerable,"Acateco, Akateco",,35763,XI Censeo Nacional de Población for number of speakers and names of languages; contributor H. Antonio García Zúñiga consulted Ethnologue for some locations,15.5724,-91.4218,"San Miguel Acatán, San Rafael La Independencia"
1491,Huichol,Mexico,MEX,hch,Vulnerable,wixarika,,35724,"Contributor Zarina Estrada, 2005 Census ",22.65,-103.5833,"Locality of San Andrés Cohamiata in the municipality of Mizquitic and 4 other municipalities in the stat of Jalisco; municipalities of El Nayar, La Yesca, Rosamorada, San Blas, and Santiago Ixcuintla in the state of Nayarit; municipality of Mezquital in the state of Durango"
406,Romansh,Switzerland,CHE,roh,Definitely endangered,,,35095,,46.5777,9.6954,"mainly in Surselva, Seumeir and Unterengadin regions in Graubünden (Grischun)"
938,Apatani,India,IND,apt,Vulnerable,Apa Tani,,35000,,27.5228,93.8177,"Apatani valley, lower Subansiri D."
988,Galo,India,IND,adl,Vulnerable,"Gallong, Adi Galo",,35000,Post 2007,28.1688,94.7433,southern parts of West Siang Dt.
1218,Korwa,India,IND,kfp,Vulnerable,"Koroa, Ernga",,35000,,22.4922,84.1552,"Jharkhand, Palamau and Gumla districts; Chhattisgarh, Surguja, Raigarh and Bilaspur districts; Orissa, Mayurbhanj and Sundargarh districts; Uttar Pradesh, Mirzapur District; West Bengal; Andhra Pradesh"
759,Shuar chicham,Ecuador,ECU,jiv,Definitely endangered,"Shuara, Jivaro, Jibaro (These last two names connote the sense of savage and are rejected by the speakers)",,35000,"- CODENPE, 2008 www.codenpe.org.ec
- Federación Shuar. 1995. “Su organización política”. http://www.guadalupe-ec.org/1_pfarre/03_etnias/cultura3_pol%C3%ADtica.htm. (Downloades: October, 2006.)
- Juncosa, José. 1999.  Mapa lingüístico de la Amazonia ecuatoriana. Quito: Abya-Yala.
- Montaluisa, Luis. 2008. “Lenguas indígenas vivas del Ecuador”. International Expert Group Meeting on Indigenous Languages. UNITED NATIONS. Department of Economic and Social Affairs. Division for Social Policy and Development. Secretariat of the Permanent Forum on Indigenous Issues (8-10 January, 2008, New York) (Downloades: May, 2008.)

",-2.8826,-78.0303,"Provinces of Morona Santiago, Pastaza and Zamora Chinchipe. Smaller communities are located in the provinces of  Sucumbíos and Orellana  (Amazonia) and also in the Coastal region (Provinces of Guayas and Esmeraldas.)"
742,Ticuna,"Brazil, Colombia, Peru","BRA, COL, PER",tca,Definitely endangered,Tikuna,,35000,"Pozzi-Escot (2008), 'El multilingüismo en el Perú'.
Arango and Sánchez (2004), 'Los pueblos indígenas de Colombia'",-4.3464,-70.0048,"Depto. de  Loreto, en el llamado Trapecio Amazónico: fronteras de Perú, Colombia y Brasil"
999,Wanka Quechua,Peru,PER,"qhu, qhj, qxw, qvw",Severely endangered,Quichua. Nunashimi. Huanca.,,35000,,-12.136,-75.2453,"Zona central del Perú: departamento de Junín: provincias de Concepción, Chupaca, Huancayo y Jauja."
296,Sikuani,"Colombia, Venezuela (Bolivarian Republic of)","COL, VEN","guh, gob",Vulnerable,"Guahibo, Hiwi. Playero is a subgroup.",,34614,"Arango and Sánchez, 'Los pueblos indígenas de Colombia' (2004)
Rodríguez en González, 'Lenguas indígenas de Colombia' (2000)
Mosonyi and Mosonyi, 'Manual de lenguas indígenas de Venezuela' (2000)",3.4256,-68.8183,"Departments of Arauca, Casanare, Meta, Vichada (Colombia). States of Amazonas, Apure, Bolívar and Guarico (Venezuela)."
1800,Jakaltek (Guatemala),Guatemala,GTM,jai,Definitely endangered,Poptí,,34038,XI Censo Nacional de Población for number of speakers and language names; contributor H. Antonio García Zúñiga consulted Ethnologue for some locations.,15.6685,-91.7111,Concepción Huista; Jacaltenango in dept. of Huehuetenango
1147,Liangmai,India,IND,njn,Vulnerable,Liangmei,,34000,,25.2794,93.6694,"Nagaland, Kohima Dt."
1150,Zeme,India,IND,nzm,Vulnerable,Zemi,,34000,,25.5027,93.5595,"Manipur, Tamenglong Dt.; Nagaland, Kohima Dt."
1277,Highland Mazatec,Mexico,MEX,mau,Vulnerable,"enna, Mazateco de la sierra",,33859,Census 2000 and information provided by INALI,18.1307,-96.8436,"Municipalities of Huautla de Jiménez and Huautepec, state of Oaxaca"
1116,Thangmi,Nepal,NPL,thf,Definitely endangered,थामी; Thami,,33500,"Driem, George van. 2001. Languages of the Himalayas. Volumes 1 and 2. Hand-book of Oriental Studies. Section Two: India. Leiden/Boston/Köln: Brill.
Turin, Mark. 2008. Personal communication.

Turin, Mark. 2006.  A Grammar of the Thangmi Language. With an ethnolinguistic introduction to the speakers and their culture. Ph.D. dissertation. Leiden University.

Driem, George van. 2007. 'South Asia and the Middle East', pp. 283-347 in Christopher Moseley (ed.) Encyclopedia of the World's Endangered Languages. London/New York: Routledge.

ethnologue.com",27.6969,86.0057,Dolakhā and Sindhupālcok districts
1106,Nocte,India,IND,njb,Vulnerable,,,33000,,27.1618,95.7952,"Arunachal Pradesh, Tirap Dt."
1490,Mayo,Mexico,MEX,mfy,Critically endangered,yorem-nokki,,32869,"Contributor Zarina Estrada, 2000 Census and information provided by INALI",26.9114,-109.6271,"Municipalities of Cajeme, Etchojoa, Huatabampo, Navojoa and others in the state of Sonora; Guasave in the state of Sinaloa."
2309,Lauje,Indonesia,IDN,law,Vulnerable,,,32000,Grimes 2000,-0.4531,119.9816,Sulawesi
431,Danuwar,Nepal,NPL,dhw,Severely endangered,दनुवारी; Dhanwar,,31849,"Driem, George van. 2001. Languages of the Himalayas. Volumes 1 and 2. Hand-book of Oriental Studies. Section Two: India. Leiden/Boston/Köln: Brill.

Driem, George van. 2007. 'South Asia and the Middle East', pp. 283-347 in Christopher Moseley (ed.) Encyclopedia of the World's Endangered Languages. London/New York: Routledge.

ethnologue.com",26.9661,86.3223,"Sindhulī and Udaypur districts in the Inner Terai, but also in Kābhrepālañcok, Sindhupālcok, Sarlāhī, Mahottarī, Dhanuṣā and Sirahā districts"
1561,Sirmaudi,India,IND,srx,Critically endangered,Sirmauri; Sirmouri; Sirmuri,,31144,,30.9823,77.1569,"Himachal Pradesh, near Shimla and Solan"
1077,Abaza,"Russian Federation, Turkey","RUS, TUR",abq,Definitely endangered,Tapanta,,31000,"В. А. Чирикба: Абазинский язык. — Языки Российской Федерации и соседних государств: энциклопедия I. Москва: Наука, 1997. | Wolfgang Schulze: Abasinisch. — Lexikon der Sprachen des europäischen Ostens. Herausgegeben von Miloš Okuka unter Mitwirkung von Gerald Krenn. Wieser Enzyklopädie des europäischen Ostens 10; Klagenfurt: Wieser, 2002. 837–841.",44.1556,41.9368,"parts of the Karachay-Cherkes Republic in the Russian Federation; the Ashkharawa dialect, officially subsumed under Abaza, belongs to Abkhaz"
1171,Koch,India,IND,kdq,Definitely endangered,"Koc, Kocch, Koce, Kochboli, Konch",,31000,see also Robbins Burling 1959 ('Proto-Bodo' in Language 35 (3) : 433-453,25.7603,90.3955,"Meghalaya, West Garo Hills District; Assam; Tripura; Manipur; West Bengal."
2030,Amis,China,CHN,ami,Vulnerable,Ami,,30000,,23.4456,121.4483,Taiwan Province
2525,Biak,Indonesia,IDN,bhw,Vulnerable,,,30000,"Wurm, Stephen A. 2007. 'Australia and the Pacific', pp. 424-557 in Christopher Moseley (ed.) Encyclopedia of the World's Endangered Languages. London/New York: Routledge.",-0.3076,131.2207,Irian Jaya
1245,Bumthang,Bhutan,BTN,kjz,Vulnerable,"Bumtanp; Bumtang, Kebumtamp; Bhumtam",,30000,"Driem, George van. 1991. Report on the First Linguistic Survey of Bhutan. Thimphu: Royal Government of Bhutan.

Driem, George van. 2001. Languages of the Himalayas. Volumes 1 and 2. Hand-book of Oriental Studies. Section Two: India. Leiden/Boston/Köln: Brill.

Driem, George van. 2007. 'South Asia and the Middle East', pp. 283-347 in Christopher Moseley (ed.) Encyclopedia of the World's Endangered Languages. London/New York: Routledge.

ethnologue.com",27.492,90.7159,Bumthang district
1350,Burgenland Croatian,"Austria, Hungary, Slovakia","AUT, HUN, SVK","bos, hrv, srp",Definitely endangered,,,30000,"Siegfried Tornow: Burgenlandkroatisch. — Lexikon der Sprachen des europäischen Ostens. Herausgegeben von Miloš Okuka unter Mitwirkung von Gerald Krenn. Wieser Enzyklopädie des europäischen Ostens 10; Klagenfurt: Wieser, 2002. 235–245.",47.8435,16.5179,"Burgenland, Austria: 65 settlements; Győr-Moson-Sopron and Vas counties, Hungary: 14 settlements; Bratislava district, Slovakia: 5 settlements; an outlying dialect of Serbo-Croat not listed separately by the SIL"
1768,Dzhidi,Iran (Islamic Republic of),IRN,jpr,Definitely endangered,"Judeo-Persian, Djudi, Judi",,30000,,33.5139,48.0102,"khurramabad, Hamadan, Western Iran."
2451,Judeo-Berber (Israel),Israel,ISR,jbe,Severely endangered,,,30000,"H. Zafrani, D. Schroeter, various websites (S.Mezhoud, 2008)
",31.6767,34.5684,"Dispersed throughout Israel, some at Ashkelon. Emigrated from several regions of Morocco. Two main varieties, one based on Middle Atlas Tamazight, the other on Tachelhit (Sous). Most speakers are bilingual Judeo-Arabic."
1120,Kham,Nepal,NPL,"kgj, kip",Definitely endangered,खाम;,,30000,"Driem, George van. 2001. Languages of the Himalayas. Volumes 1 and 2. Hand-book of Oriental Studies. Section Two: India. Leiden/Boston/Köln: Brill.

Driem, George van. 2007. 'South Asia and the Middle East', pp. 283-347 in Christopher Moseley (ed.) Encyclopedia of the World's Endangered Languages. London/New York: Routledge.

ethnologue.com",28.4321,82.9635,Rukum and Rolpā districts.
565,Ladin,Italy,ITA,lld,Definitely endangered,,,30000,,46.5531,11.8597,"several towns and villages in the Dolomites, including Badia and Marebbe in the Badia valley and Gardena in the Gardena valley in Bolzano Province (South Tyrol), Fassa in the Fassa valley in Trento Province, and Livinallongo in the Cordevole valley in Belluno Province"
440,Lepcha,"Bhutan, India, Nepal","BTN, IND, NPL",lep,Definitely endangered,Lapche; Rong; Róng,,30000,"Plaisier, Heleen. 2008. Personal communication.

Plaisier, Heleen. 2006. A Grammar of Lepcha. Ph.D. dissertation. Leiden University.

